$GPGGA,184911.211,4240.946,N,17102.109,W,1,12,1.0,0.0,M,0.0,M,,*7E
$GPGSA,A,3,01,02,03,04,05,06,07,08,09,10,11,12,1.0,1.0,1.0*30
$GPRMC,184911.211,A,4240.946,N,17102.109,W,15931.2,244.0,180619,000.0,W*62
$GPGGA,184912.211,4238.509,N,17107.128,W,1,12,1.0,0.0,M,0.0,M,,*73
$GPGSA,A,3,01,02,03,04,05,06,07,08,09,10,11,12,1.0,1.0,1.0*30
$GPRMC,184912.211,A,4238.509,N,17107.128,W,15938.5,244.0,180619,000.0,W*61
$GPGGA,184913.211,4236.072,N,17112.146,W,1,12,1.0,0.0,M,0.0,M,,*79
$GPGSA,A,3,01,02,03,04,05,06,07,08,09,10,11,12,1.0,1.0,1.0*30
$GPRMC,184913.211,A,4236.072,N,17112.146,W,15945.7,244.0,180619,000.0,W*63
$GPGGA,184914.211,4233.635,N,17117.164,W,1,12,1.0,0.0,M,0.0,M,,*7B
$GPGSA,A,3,01,02,03,04,05,06,07,08,09,10,11,12,1.0,1.0,1.0*30
$GPRMC,184914.211,A,4233.635,N,17117.164,W,15953.0,244.0,180619,000.0,W*61
$GPGGA,184915.211,4231.198,N,17122.183,W,1,12,1.0,0.0,M,0.0,M,,*77
$GPGSA,A,3,01,02,03,04,05,06,07,08,09,10,11,12,1.0,1.0,1.0*30
$GPRMC,184915.211,A,4231.198,N,17122.183,W,15960.2,244.0,180619,000.0,W*6F
$GPGGA,184916.211,4228.761,N,17127.201,W,1,12,1.0,0.0,M,0.0,M,,*70
$GPGSA,A,3,01,02,03,04,05,06,07,08,09,10,11,12,1.0,1.0,1.0*30
$GPRMC,184916.211,A,4228.761,N,17127.201,W,15967.4,244.0,180619,000.0,W*69
$GPGGA,184917.211,4226.324,N,17132.219,W,1,12,1.0,0.0,M,0.0,M,,*77
$GPGSA,A,3,01,02,03,04,05,06,07,08,09,10,11,12,1.0,1.0,1.0*30
$GPRMC,184917.211,A,4226.324,N,17132.219,W,15974.6,244.0,180619,000.0,W*6E
$GPGGA,184918.211,4223.887,N,17137.238,W,1,12,1.0,0.0,M,0.0,M,,*79
$GPGSA,A,3,01,02,03,04,05,06,07,08,09,10,11,12,1.0,1.0,1.0*30
$GPRMC,184918.211,A,4223.887,N,17137.238,W,15981.9,244.0,180619,000.0,W*65
$GPGGA,184919.211,4221.450,N,17142.256,W,1,12,1.0,0.0,M,0.0,M,,*76
$GPGSA,A,3,01,02,03,04,05,06,07,08,09,10,11,12,1.0,1.0,1.0*30
$GPRMC,184919.211,A,4221.450,N,17142.256,W,15989.1,244.0,180619,000.0,W*6A
$GPGGA,184920.211,4219.013,N,17147.274,W,1,12,1.0,0.0,M,0.0,M,,*71
$GPGSA,A,3,01,02,03,04,05,06,07,08,09,10,11,12,1.0,1.0,1.0*30
$GPRMC,184920.211,A,4219.013,N,17147.274,W,15996.3,244.0,180619,000.0,W*61
$GPGGA,184921.211,4216.576,N,17152.293,W,1,12,1.0,0.0,M,0.0,M,,*74
$GPGSA,A,3,01,02,03,04,05,06,07,08,09,10,11,12,1.0,1.0,1.0*30
$GPRMC,184921.211,A,4216.576,N,17152.293,W,16003.5,244.0,180619,000.0,W*64
$GPGGA,184922.211,4214.139,N,17157.311,W,1,12,1.0,0.0,M,0.0,M,,*74
$GPGSA,A,3,01,02,03,04,05,06,07,08,09,10,11,12,1.0,1.0,1.0*30
$GPRMC,184922.211,A,4214.139,N,17157.311,W,16010.7,244.0,180619,000.0,W*64
$GPGGA,184923.211,4211.702,N,17202.329,W,1,12,1.0,0.0,M,0.0,M,,*76
$GPGSA,A,3,01,02,03,04,05,06,07,08,09,10,11,12,1.0,1.0,1.0*30
$GPRMC,184923.211,A,4211.702,N,17202.329,W,16017.9,244.0,180619,000.0,W*6F
$GPGGA,184924.211,4209.265,N,17207.348,W,1,12,1.0,0.0,M,0.0,M,,*7E
$GPGSA,A,3,01,02,03,04,05,06,07,08,09,10,11,12,1.0,1.0,1.0*30
$GPRMC,184924.211,A,4209.265,N,17207.348,W,16025.1,244.0,180619,000.0,W*6E
$GPGGA,184925.211,4206.828,N,17212.366,W,1,12,1.0,0.0,M,0.0,M,,*7B
$GPGSA,A,3,01,02,03,04,05,06,07,08,09,10,11,12,1.0,1.0,1.0*30
$GPRMC,184925.211,A,4206.828,N,17212.366,W,16032.3,244.0,180619,000.0,W*6F
$GPGGA,184926.211,4204.391,N,17217.384,W,1,12,1.0,0.0,M,0.0,M,,*7A
$GPGSA,A,3,01,02,03,04,05,06,07,08,09,10,11,12,1.0,1.0,1.0*30
$GPRMC,184926.211,A,4204.391,N,17217.384,W,16039.5,244.0,180619,000.0,W*63
$GPGGA,184927.211,4201.954,N,17222.402,W,1,12,1.0,0.0,M,0.0,M,,*72
$GPGSA,A,3,01,02,03,04,05,06,07,08,09,10,11,12,1.0,1.0,1.0*30
$GPRMC,184927.211,A,4201.954,N,17222.402,W,16046.6,244.0,180619,000.0,W*60
$GPGGA,184928.211,4159.517,N,17227.421,W,1,12,1.0,0.0,M,0.0,M,,*7C
$GPGSA,A,3,01,02,03,04,05,06,07,08,09,10,11,12,1.0,1.0,1.0*30
$GPRMC,184928.211,A,4159.517,N,17227.421,W,16053.8,244.0,180619,000.0,W*64
$GPGGA,184929.211,4157.080,N,17232.439,W,1,12,1.0,0.0,M,0.0,M,,*75
$GPGSA,A,3,01,02,03,04,05,06,07,08,09,10,11,12,1.0,1.0,1.0*30
$GPRMC,184929.211,A,4157.080,N,17232.439,W,16061.0,244.0,180619,000.0,W*64
$GPGGA,184930.211,4154.643,N,17237.457,W,1,12,1.0,0.0,M,0.0,M,,*7A
$GPGSA,A,3,01,02,03,04,05,06,07,08,09,10,11,12,1.0,1.0,1.0*30
$GPRMC,184930.211,A,4154.643,N,17237.457,W,16068.2,244.0,180619,000.0,W*60
$GPGGA,184931.211,4152.206,N,17242.476,W,1,12,1.0,0.0,M,0.0,M,,*79
$GPGSA,A,3,01,02,03,04,05,06,07,08,09,10,11,12,1.0,1.0,1.0*30
$GPRMC,184931.211,A,4152.206,N,17242.476,W,16075.3,244.0,180619,000.0,W*6E
$GPGGA,184932.211,4149.769,N,17247.494,W,1,12,1.0,0.0,M,0.0,M,,*75
$GPGSA,A,3,01,02,03,04,05,06,07,08,09,10,11,12,1.0,1.0,1.0*30
$GPRMC,184932.211,A,4149.769,N,17247.494,W,16082.5,244.0,180619,000.0,W*6C
$GPGGA,184933.211,4147.332,N,17252.512,W,1,12,1.0,0.0,M,0.0,M,,*7B
$GPGSA,A,3,01,02,03,04,05,06,07,08,09,10,11,12,1.0,1.0,1.0*30
$GPRMC,184933.211,A,4147.332,N,17252.512,W,16089.6,244.0,180619,000.0,W*6A
$GPGGA,184934.211,4144.895,N,17257.531,W,1,12,1.0,0.0,M,0.0,M,,*7D
$GPGSA,A,3,01,02,03,04,05,06,07,08,09,10,11,12,1.0,1.0,1.0*30
$GPRMC,184934.211,A,4144.895,N,17257.531,W,16096.8,244.0,180619,000.0,W*6C
$GPGGA,184935.211,4142.458,N,17302.549,W,1,12,1.0,0.0,M,0.0,M,,*79
$GPGSA,A,3,01,02,03,04,05,06,07,08,09,10,11,12,1.0,1.0,1.0*30
$GPRMC,184935.211,A,4142.458,N,17302.549,W,16103.9,244.0,180619,000.0,W*64
$GPGGA,184936.211,4140.021,N,17307.567,W,1,12,1.0,0.0,M,0.0,M,,*7B
$GPGSA,A,3,01,02,03,04,05,06,07,08,09,10,11,12,1.0,1.0,1.0*30
$GPRMC,184936.211,A,4140.021,N,17307.567,W,16111.1,244.0,180619,000.0,W*6D
$GPGGA,184937.211,4137.584,N,17312.586,W,1,12,1.0,0.0,M,0.0,M,,*7B
$GPGSA,A,3,01,02,03,04,05,06,07,08,09,10,11,12,1.0,1.0,1.0*30
$GPRMC,184937.211,A,4137.584,N,17312.586,W,16118.2,244.0,180619,000.0,W*67
$GPGGA,184938.211,4135.147,N,17317.604,W,1,12,1.0,0.0,M,0.0,M,,*71
$GPGSA,A,3,01,02,03,04,05,06,07,08,09,10,11,12,1.0,1.0,1.0*30
$GPRMC,184938.211,A,4135.147,N,17317.604,W,16125.4,244.0,180619,000.0,W*65
$GPGGA,184939.211,4132.709,N,17322.622,W,1,12,1.0,0.0,M,0.0,M,,*79
$GPGSA,A,3,01,02,03,04,05,06,07,08,09,10,11,12,1.0,1.0,1.0*30
$GPRMC,184939.211,A,4132.709,N,17322.622,W,16132.5,244.0,180619,000.0,W*6A
$GPGGA,184940.211,4130.272,N,17327.641,W,1,12,1.0,0.0,M,0.0,M,,*7C
$GPGSA,A,3,01,02,03,04,05,06,07,08,09,10,11,12,1.0,1.0,1.0*30
$GPRMC,184940.211,A,4130.272,N,17327.641,W,16139.6,244.0,180619,000.0,W*67
$GPGGA,184941.211,4127.835,N,17332.659,W,1,12,1.0,0.0,M,0.0,M,,*7F
$GPGSA,A,3,01,02,03,04,05,06,07,08,09,10,11,12,1.0,1.0,1.0*30
$GPRMC,184941.211,A,4127.835,N,17332.659,W,16146.7,244.0,180619,000.0,W*6D
$GPGGA,184942.211,4125.398,N,17337.677,W,1,12,1.0,0.0,M,0.0,M,,*7B
$GPGSA,A,3,01,02,03,04,05,06,07,08,09,10,11,12,1.0,1.0,1.0*30
$GPRMC,184942.211,A,4125.398,N,17337.677,W,16153.9,244.0,180619,000.0,W*63
$GPGGA,184943.211,4122.961,N,17342.696,W,1,12,1.0,0.0,M,0.0,M,,*7C
$GPGSA,A,3,01,02,03,04,05,06,07,08,09,10,11,12,1.0,1.0,1.0*30
$GPRMC,184943.211,A,4122.961,N,17342.696,W,16161.0,244.0,180619,000.0,W*6C
$GPGGA,184944.211,4120.524,N,17347.714,W,1,12,1.0,0.0,M,0.0,M,,*7A
$GPGSA,A,3,01,02,03,04,05,06,07,08,09,10,11,12,1.0,1.0,1.0*30
$GPRMC,184944.211,A,4120.524,N,17347.714,W,16168.1,244.0,180619,000.0,W*62
$GPGGA,184945.211,4118.087,N,17352.732,W,1,12,1.0,0.0,M,0.0,M,,*7C
$GPGSA,A,3,01,02,03,04,05,06,07,08,09,10,11,12,1.0,1.0,1.0*30
$GPRMC,184945.211,A,4118.087,N,17352.732,W,16175.2,244.0,180619,000.0,W*6B
$GPGGA,184946.211,4115.650,N,17357.751,W,1,12,1.0,0.0,M,0.0,M,,*7E
$GPGSA,A,3,01,02,03,04,05,06,07,08,09,10,11,12,1.0,1.0,1.0*30
$GPRMC,184946.211,A,4115.650,N,17357.751,W,16182.3,244.0,180619,000.0,W*60
$GPGGA,184947.211,4113.213,N,17402.769,W,1,12,1.0,0.0,M,0.0,M,,*76
$GPGSA,A,3,01,02,03,04,05,06,07,08,09,10,11,12,1.0,1.0,1.0*30
$GPRMC,184947.211,A,4113.213,N,17402.769,W,16189.4,244.0,180619,000.0,W*64
$GPGGA,184948.211,4110.776,N,17407.787,W,1,12,1.0,0.0,M,0.0,M,,*79
$GPGSA,A,3,01,02,03,04,05,06,07,08,09,10,11,12,1.0,1.0,1.0*30
$GPRMC,184948.211,A,4110.776,N,17407.787,W,16196.5,244.0,180619,000.0,W*64
$GPGGA,184949.211,4108.339,N,17412.805,W,1,12,1.0,0.0,M,0.0,M,,*7F
$GPGSA,A,3,01,02,03,04,05,06,07,08,09,10,11,12,1.0,1.0,1.0*30
$GPRMC,184949.211,A,4108.339,N,17412.805,W,16203.6,244.0,180619,000.0,W*6E
$GPGGA,184950.211,4105.902,N,17417.824,W,1,12,1.0,0.0,M,0.0,M,,*7E
$GPGSA,A,3,01,02,03,04,05,06,07,08,09,10,11,12,1.0,1.0,1.0*30
$GPRMC,184950.211,A,4105.902,N,17417.824,W,16210.6,244.0,180619,000.0,W*6D
$GPGGA,184951.211,4103.465,N,17422.842,W,1,12,1.0,0.0,M,0.0,M,,*73
$GPGSA,A,3,01,02,03,04,05,06,07,08,09,10,11,12,1.0,1.0,1.0*30
$GPRMC,184951.211,A,4103.465,N,17422.842,W,16217.7,244.0,180619,000.0,W*66
$GPGGA,184952.211,4101.028,N,17427.860,W,1,12,1.0,0.0,M,0.0,M,,*7A
$GPGSA,A,3,01,02,03,04,05,06,07,08,09,10,11,12,1.0,1.0,1.0*30
$GPRMC,184952.211,A,4101.028,N,17427.860,W,16224.8,244.0,180619,000.0,W*60
$GPGGA,184953.211,4058.591,N,17432.879,W,1,12,1.0,0.0,M,0.0,M,,*7D
$GPGSA,A,3,01,02,03,04,05,06,07,08,09,10,11,12,1.0,1.0,1.0*30
$GPRMC,184953.211,A,4058.591,N,17432.879,W,16231.9,244.0,180619,000.0,W*62
$GPGGA,184954.211,4056.154,N,17437.897,W,1,12,1.0,0.0,M,0.0,M,,*7C
$GPGSA,A,3,01,02,03,04,05,06,07,08,09,10,11,12,1.0,1.0,1.0*30
$GPRMC,184954.211,A,4056.154,N,17437.897,W,16238.9,244.0,180619,000.0,W*6A
$GPGGA,184955.211,4053.717,N,17442.915,W,1,12,1.0,0.0,M,0.0,M,,*70
$GPGSA,A,3,01,02,03,04,05,06,07,08,09,10,11,12,1.0,1.0,1.0*30
$GPRMC,184955.211,A,4053.717,N,17442.915,W,16246.0,244.0,180619,000.0,W*66
$GPGGA,184956.211,4051.280,N,17447.934,W,1,12,1.0,0.0,M,0.0,M,,*7C
$GPGSA,A,3,01,02,03,04,05,06,07,08,09,10,11,12,1.0,1.0,1.0*30
$GPRMC,184956.211,A,4051.280,N,17447.934,W,16253.0,244.0,180619,000.0,W*6E
$GPGGA,184957.211,4048.843,N,17452.952,W,1,12,1.0,0.0,M,0.0,M,,*74
$GPGSA,A,3,01,02,03,04,05,06,07,08,09,10,11,12,1.0,1.0,1.0*30
$GPRMC,184957.211,A,4048.843,N,17452.952,W,16260.1,244.0,180619,000.0,W*67
$GPGGA,184958.211,4046.406,N,17457.970,W,1,12,1.0,0.0,M,0.0,M,,*7D
$GPGSA,A,3,01,02,03,04,05,06,07,08,09,10,11,12,1.0,1.0,1.0*30
$GPRMC,184958.211,A,4046.406,N,17457.970,W,16267.1,244.0,180619,000.0,W*69
$GPGGA,184959.211,4043.969,N,17502.989,W,1,12,1.0,0.0,M,0.0,M,,*7A
$GPGSA,A,3,01,02,03,04,05,06,07,08,09,10,11,12,1.0,1.0,1.0*30
$GPRMC,184959.211,A,4043.969,N,17502.989,W,16274.2,244.0,180619,000.0,W*6F
$GPGGA,185000.211,4041.532,N,17508.007,W,1,12,1.0,0.0,M,0.0,M,,*7B
$GPGSA,A,3,01,02,03,04,05,06,07,08,09,10,11,12,1.0,1.0,1.0*30
$GPRMC,185000.211,A,4041.532,N,17508.007,W,16281.2,244.0,180619,000.0,W*64
$GPGGA,185001.211,4039.095,N,17513.025,W,1,12,1.0,0.0,M,0.0,M,,*77
$GPGSA,A,3,01,02,03,04,05,06,07,08,09,10,11,12,1.0,1.0,1.0*30
$GPRMC,185001.211,A,4039.095,N,17513.025,W,16288.2,244.0,180619,000.0,W*61
$GPGGA,185002.211,4036.658,N,17518.044,W,1,12,1.0,0.0,M,0.0,M,,*70
$GPGSA,A,3,01,02,03,04,05,06,07,08,09,10,11,12,1.0,1.0,1.0*30
$GPRMC,185002.211,A,4036.658,N,17518.044,W,16295.3,244.0,180619,000.0,W*6B
$GPGGA,185003.211,4034.221,N,17523.062,W,1,12,1.0,0.0,M,0.0,M,,*75
$GPGSA,A,3,01,02,03,04,05,06,07,08,09,10,11,12,1.0,1.0,1.0*30
$GPRMC,185003.211,A,4034.221,N,17523.062,W,16302.3,244.0,180619,000.0,W*61
$GPGGA,185004.211,4031.784,N,17528.080,W,1,12,1.0,0.0,M,0.0,M,,*7A
$GPGSA,A,3,01,02,03,04,05,06,07,08,09,10,11,12,1.0,1.0,1.0*30
$GPRMC,185004.211,A,4031.784,N,17528.080,W,16309.3,244.0,180619,000.0,W*65
$GPGGA,185005.211,4029.347,N,17533.099,W,1,12,1.0,0.0,M,0.0,M,,*7B
$GPGSA,A,3,01,02,03,04,05,06,07,08,09,10,11,12,1.0,1.0,1.0*30
$GPRMC,185005.211,A,4029.347,N,17533.099,W,16316.3,244.0,180619,000.0,W*6A
$GPGGA,185006.211,4026.910,N,17538.117,W,1,12,1.0,0.0,M,0.0,M,,*73
$GPGSA,A,3,01,02,03,04,05,06,07,08,09,10,11,12,1.0,1.0,1.0*30
$GPRMC,185006.211,A,4026.910,N,17538.117,W,16323.3,244.0,180619,000.0,W*64
$GPGGA,185007.211,4024.473,N,17543.135,W,1,12,1.0,0.0,M,0.0,M,,*74
$GPGSA,A,3,01,02,03,04,05,06,07,08,09,10,11,12,1.0,1.0,1.0*30
$GPRMC,185007.211,A,4024.473,N,17543.135,W,16330.3,244.0,180619,000.0,W*61
$GPGGA,185008.211,4022.036,N,17548.153,W,1,12,1.0,0.0,M,0.0,M,,*73
$GPGSA,A,3,01,02,03,04,05,06,07,08,09,10,11,12,1.0,1.0,1.0*30
$GPRMC,185008.211,A,4022.036,N,17548.153,W,16337.3,244.0,180619,000.0,W*61
$GPGGA,185009.211,4019.599,N,17553.172,W,1,12,1.0,0.0,M,0.0,M,,*73
$GPGSA,A,3,01,02,03,04,05,06,07,08,09,10,11,12,1.0,1.0,1.0*30
$GPRMC,185009.211,A,4019.599,N,17553.172,W,16344.3,244.0,180619,000.0,W*65
$GPGGA,185010.211,4017.162,N,17558.190,W,1,12,1.0,0.0,M,0.0,M,,*72
$GPGSA,A,3,01,02,03,04,05,06,07,08,09,10,11,12,1.0,1.0,1.0*30
$GPRMC,185010.211,A,4017.162,N,17558.190,W,16351.3,244.0,180619,000.0,W*60
$GPGGA,185011.211,4014.725,N,17603.208,W,1,12,1.0,0.0,M,0.0,M,,*7A
$GPGSA,A,3,01,02,03,04,05,06,07,08,09,10,11,12,1.0,1.0,1.0*30
$GPRMC,185011.211,A,4014.725,N,17603.208,W,16358.3,244.0,180619,000.0,W*61
$GPGGA,185012.211,4012.288,N,17608.227,W,1,12,1.0,0.0,M,0.0,M,,*7B
$GPGSA,A,3,01,02,03,04,05,06,07,08,09,10,11,12,1.0,1.0,1.0*30
$GPRMC,185012.211,A,4012.288,N,17608.227,W,16365.3,244.0,180619,000.0,W*6E
$GPGGA,185013.211,4009.851,N,17613.245,W,1,12,1.0,0.0,M,0.0,M,,*70
$GPGSA,A,3,01,02,03,04,05,06,07,08,09,10,11,12,1.0,1.0,1.0*30
$GPRMC,185013.211,A,4009.851,N,17613.245,W,16372.3,244.0,180619,000.0,W*63
$GPGGA,185014.211,4007.414,N,17618.263,W,1,12,1.0,0.0,M,0.0,M,,*7B
$GPGSA,A,3,01,02,03,04,05,06,07,08,09,10,11,12,1.0,1.0,1.0*30
$GPRMC,185014.211,A,4007.414,N,17618.263,W,16379.2,244.0,180619,000.0,W*62
$GPGGA,185015.211,4004.977,N,17623.282,W,1,12,1.0,0.0,M,0.0,M,,*76
$GPGSA,A,3,01,02,03,04,05,06,07,08,09,10,11,12,1.0,1.0,1.0*30
$GPRMC,185015.211,A,4004.977,N,17623.282,W,16386.2,244.0,180619,000.0,W*6F
$GPGGA,185016.211,4002.540,N,17628.300,W,1,12,1.0,0.0,M,0.0,M,,*7B
$GPGSA,A,3,01,02,03,04,05,06,07,08,09,10,11,12,1.0,1.0,1.0*30
$GPRMC,185016.211,A,4002.540,N,17628.300,W,16393.2,244.0,180619,000.0,W*66
$GPGGA,185017.211,4000.103,N,17633.318,W,1,12,1.0,0.0,M,0.0,M,,*78
$GPGSA,A,3,01,02,03,04,05,06,07,08,09,10,11,12,1.0,1.0,1.0*30
$GPRMC,185017.211,A,4000.103,N,17633.318,W,16400.1,244.0,180619,000.0,W*6B
$GPGGA,185018.211,3957.666,N,17638.337,W,1,12,1.0,0.0,M,0.0,M,,*79
$GPGSA,A,3,01,02,03,04,05,06,07,08,09,10,11,12,1.0,1.0,1.0*30
$GPRMC,185018.211,A,3957.666,N,17638.337,W,16407.1,244.0,180619,000.0,W*6D
$GPGGA,185019.211,3955.229,N,17643.355,W,1,12,1.0,0.0,M,0.0,M,,*7D
$GPGSA,A,3,01,02,03,04,05,06,07,08,09,10,11,12,1.0,1.0,1.0*30
$GPRMC,185019.211,A,3955.229,N,17643.355,W,16414.0,244.0,180619,000.0,W*6A
$GPGGA,185020.211,3952.792,N,17648.373,W,1,12,1.0,0.0,M,0.0,M,,*7A
$GPGSA,A,3,01,02,03,04,05,06,07,08,09,10,11,12,1.0,1.0,1.0*30
$GPRMC,185020.211,A,3952.792,N,17648.373,W,16421.0,244.0,180619,000.0,W*6B
$GPGGA,185021.211,3950.355,N,17653.392,W,1,12,1.0,0.0,M,0.0,M,,*73
$GPGSA,A,3,01,02,03,04,05,06,07,08,09,10,11,12,1.0,1.0,1.0*30
$GPRMC,185021.211,A,3950.355,N,17653.392,W,16427.9,244.0,180619,000.0,W*6D
$GPGGA,185022.211,3947.918,N,17658.410,W,1,12,1.0,0.0,M,0.0,M,,*73
$GPGSA,A,3,01,02,03,04,05,06,07,08,09,10,11,12,1.0,1.0,1.0*30
$GPRMC,185022.211,A,3947.918,N,17658.410,W,16434.8,244.0,180619,000.0,W*6E
$GPGGA,185023.211,3945.480,N,17703.428,W,1,12,1.0,0.0,M,0.0,M,,*78
$GPGSA,A,3,01,02,03,04,05,06,07,08,09,10,11,12,1.0,1.0,1.0*30
$GPRMC,185023.211,A,3945.480,N,17703.428,W,16441.8,244.0,180619,000.0,W*67
$GPGGA,185024.211,3943.043,N,17708.447,W,1,12,1.0,0.0,M,0.0,M,,*70
$GPGSA,A,3,01,02,03,04,05,06,07,08,09,10,11,12,1.0,1.0,1.0*30
$GPRMC,185024.211,A,3943.043,N,17708.447,W,16448.7,244.0,180619,000.0,W*69
$GPGGA,185025.211,3940.606,N,17713.465,W,1,12,1.0,0.0,M,0.0,M,,*7F
$GPGSA,A,3,01,02,03,04,05,06,07,08,09,10,11,12,1.0,1.0,1.0*30
$GPRMC,185025.211,A,3940.606,N,17713.465,W,16455.6,244.0,180619,000.0,W*6B
$GPGGA,185026.211,3938.169,N,17718.483,W,1,12,1.0,0.0,M,0.0,M,,*7E
$GPGSA,A,3,01,02,03,04,05,06,07,08,09,10,11,12,1.0,1.0,1.0*30
$GPRMC,185026.211,A,3938.169,N,17718.483,W,16462.5,244.0,180619,000.0,W*6D
$GPGGA,185027.211,3935.732,N,17723.502,W,1,12,1.0,0.0,M,0.0,M,,*7A
$GPGSA,A,3,01,02,03,04,05,06,07,08,09,10,11,12,1.0,1.0,1.0*30
$GPRMC,185027.211,A,3935.732,N,17723.502,W,16469.4,244.0,180619,000.0,W*63
$GPGGA,185028.211,3933.295,N,17728.520,W,1,12,1.0,0.0,M,0.0,M,,*70
$GPGSA,A,3,01,02,03,04,05,06,07,08,09,10,11,12,1.0,1.0,1.0*30
$GPRMC,185028.211,A,3933.295,N,17728.520,W,16476.3,244.0,180619,000.0,W*60
$GPGGA,185029.211,3930.858,N,17733.538,W,1,12,1.0,0.0,M,0.0,M,,*7A
$GPGSA,A,3,01,02,03,04,05,06,07,08,09,10,11,12,1.0,1.0,1.0*30
$GPRMC,185029.211,A,3930.858,N,17733.538,W,16483.2,244.0,180619,000.0,W*61
$GPGGA,185030.211,3928.421,N,17738.556,W,1,12,1.0,0.0,M,0.0,M,,*7A
$GPGSA,A,3,01,02,03,04,05,06,07,08,09,10,11,12,1.0,1.0,1.0*30
$GPRMC,185030.211,A,3928.421,N,17738.556,W,16490.1,244.0,180619,000.0,W*60
$GPGGA,185031.211,3925.984,N,17743.575,W,1,12,1.0,0.0,M,0.0,M,,*79
$GPGSA,A,3,01,02,03,04,05,06,07,08,09,10,11,12,1.0,1.0,1.0*30
$GPRMC,185031.211,A,3925.984,N,17743.575,W,16497.0,244.0,180619,000.0,W*65
$GPGGA,185032.211,3923.547,N,17748.593,W,1,12,1.0,0.0,M,0.0,M,,*7C
$GPGSA,A,3,01,02,03,04,05,06,07,08,09,10,11,12,1.0,1.0,1.0*30
$GPRMC,185032.211,A,3923.547,N,17748.593,W,16503.9,244.0,180619,000.0,W*65
$GPGGA,185033.211,3921.110,N,17753.611,W,1,12,1.0,0.0,M,0.0,M,,*7A
$GPGSA,A,3,01,02,03,04,05,06,07,08,09,10,11,12,1.0,1.0,1.0*30
$GPRMC,185033.211,A,3921.110,N,17753.611,W,16510.8,244.0,180619,000.0,W*60
$GPGGA,185034.211,3918.673,N,17758.630,W,1,12,1.0,0.0,M,0.0,M,,*7D
$GPGSA,A,3,01,02,03,04,05,06,07,08,09,10,11,12,1.0,1.0,1.0*30
$GPRMC,185034.211,A,3918.673,N,17758.630,W,16517.7,244.0,180619,000.0,W*6F
$GPGGA,185035.211,3916.236,N,17803.648,W,1,12,1.0,0.0,M,0.0,M,,*79
$GPGSA,A,3,01,02,03,04,05,06,07,08,09,10,11,12,1.0,1.0,1.0*30
$GPRMC,185035.211,A,3916.236,N,17803.648,W,16524.5,244.0,180619,000.0,W*69
$GPGGA,185036.211,3913.799,N,17808.666,W,1,12,1.0,0.0,M,0.0,M,,*78
$GPGSA,A,3,01,02,03,04,05,06,07,08,09,10,11,12,1.0,1.0,1.0*30
$GPRMC,185036.211,A,3913.799,N,17808.666,W,16531.4,244.0,180619,000.0,W*6D
$GPGGA,185037.211,3911.362,N,17813.685,W,1,12,1.0,0.0,M,0.0,M,,*7C
$GPGSA,A,3,01,02,03,04,05,06,07,08,09,10,11,12,1.0,1.0,1.0*30
$GPRMC,185037.211,A,3911.362,N,17813.685,W,16538.3,244.0,180619,000.0,W*67
$GPGGA,185038.211,3908.925,N,17818.703,W,1,12,1.0,0.0,M,0.0,M,,*76
$GPGSA,A,3,01,02,03,04,05,06,07,08,09,10,11,12,1.0,1.0,1.0*30
$GPRMC,185038.211,A,3908.925,N,17818.703,W,16545.1,244.0,180619,000.0,W*65
$GPGGA,185039.211,3906.488,N,17823.721,W,1,12,1.0,0.0,M,0.0,M,,*7B
$GPGSA,A,3,01,02,03,04,05,06,07,08,09,10,11,12,1.0,1.0,1.0*30
$GPRMC,185039.211,A,3906.488,N,17823.721,W,16552.0,244.0,180619,000.0,W*6F
$GPGGA,185040.211,3904.051,N,17828.740,W,1,12,1.0,0.0,M,0.0,M,,*7B
$GPGSA,A,3,01,02,03,04,05,06,07,08,09,10,11,12,1.0,1.0,1.0*30
$GPRMC,185040.211,A,3904.051,N,17828.740,W,16558.8,244.0,180619,000.0,W*6D
$GPGGA,185041.211,3901.614,N,17833.758,W,1,12,1.0,0.0,M,0.0,M,,*7B
$GPGSA,A,3,01,02,03,04,05,06,07,08,09,10,11,12,1.0,1.0,1.0*30
$GPRMC,185041.211,A,3901.614,N,17833.758,W,16565.7,244.0,180619,000.0,W*6C
$GPGGA,185042.211,3859.177,N,17838.776,W,1,12,1.0,0.0,M,0.0,M,,*71
$GPGSA,A,3,01,02,03,04,05,06,07,08,09,10,11,12,1.0,1.0,1.0*30
$GPRMC,185042.211,A,3859.177,N,17838.776,W,16572.5,244.0,180619,000.0,W*62
$GPGGA,185043.211,3856.740,N,17843.795,W,1,12,1.0,0.0,M,0.0,M,,*7C
$GPGSA,A,3,01,02,03,04,05,06,07,08,09,10,11,12,1.0,1.0,1.0*30
$GPRMC,185043.211,A,3856.740,N,17843.795,W,16579.3,244.0,180619,000.0,W*62
$GPGGA,185044.211,3854.303,N,17848.813,W,1,12,1.0,0.0,M,0.0,M,,*70
$GPGSA,A,3,01,02,03,04,05,06,07,08,09,10,11,12,1.0,1.0,1.0*30
$GPRMC,185044.211,A,3854.303,N,17848.813,W,16586.2,244.0,180619,000.0,W*6F
$GPGGA,185045.211,3851.866,N,17853.831,W,1,12,1.0,0.0,M,0.0,M,,*76
$GPGSA,A,3,01,02,03,04,05,06,07,08,09,10,11,12,1.0,1.0,1.0*30
$GPRMC,185045.211,A,3851.866,N,17853.831,W,16593.0,244.0,180619,000.0,W*6F
$GPGGA,185046.211,3849.429,N,17858.850,W,1,12,1.0,0.0,M,0.0,M,,*77
$GPGSA,A,3,01,02,03,04,05,06,07,08,09,10,11,12,1.0,1.0,1.0*30
$GPRMC,185046.211,A,3849.429,N,17858.850,W,16599.8,244.0,180619,000.0,W*6C
$GPGGA,185047.211,3846.992,N,17903.868,W,1,12,1.0,0.0,M,0.0,M,,*70
$GPGSA,A,3,01,02,03,04,05,06,07,08,09,10,11,12,1.0,1.0,1.0*30
$GPRMC,185047.211,A,3846.992,N,17903.868,W,16606.6,244.0,180619,000.0,W*60
$GPGGA,185048.211,3844.555,N,17908.886,W,1,12,1.0,0.0,M,0.0,M,,*71
$GPGSA,A,3,01,02,03,04,05,06,07,08,09,10,11,12,1.0,1.0,1.0*30
$GPRMC,185048.211,A,3844.555,N,17908.886,W,16613.4,244.0,180619,000.0,W*67
$GPGGA,185049.211,3842.118,N,17913.905,W,1,12,1.0,0.0,M,0.0,M,,*7B
$GPGSA,A,3,01,02,03,04,05,06,07,08,09,10,11,12,1.0,1.0,1.0*30
$GPRMC,185049.211,A,3842.118,N,17913.905,W,16620.2,244.0,180619,000.0,W*6B
$GPGGA,185050.211,3839.681,N,17918.923,W,1,12,1.0,0.0,M,0.0,M,,*77
$GPGSA,A,3,01,02,03,04,05,06,07,08,09,10,11,12,1.0,1.0,1.0*30
$GPRMC,185050.211,A,3839.681,N,17918.923,W,16627.0,244.0,180619,000.0,W*62
$GPGGA,185051.211,3837.244,N,17923.941,W,1,12,1.0,0.0,M,0.0,M,,*79
$GPGSA,A,3,01,02,03,04,05,06,07,08,09,10,11,12,1.0,1.0,1.0*30
$GPRMC,185051.211,A,3837.244,N,17923.941,W,16633.8,244.0,180619,000.0,W*61
$GPGGA,185052.211,3834.807,N,17928.959,W,1,12,1.0,0.0,M,0.0,M,,*76
$GPGSA,A,3,01,02,03,04,05,06,07,08,09,10,11,12,1.0,1.0,1.0*30
$GPRMC,185052.211,A,3834.807,N,17928.959,W,16640.6,244.0,180619,000.0,W*64
$GPGGA,185053.211,3832.370,N,17933.978,W,1,12,1.0,0.0,M,0.0,M,,*73
$GPGSA,A,3,01,02,03,04,05,06,07,08,09,10,11,12,1.0,1.0,1.0*30
$GPRMC,185053.211,A,3832.370,N,17933.978,W,16647.4,244.0,180619,000.0,W*64
$GPGGA,185054.211,3829.933,N,17938.996,W,1,12,1.0,0.0,M,0.0,M,,*78
$GPGSA,A,3,01,02,03,04,05,06,07,08,09,10,11,12,1.0,1.0,1.0*30
$GPRMC,185054.211,A,3829.933,N,17938.996,W,16654.2,244.0,180619,000.0,W*6B
$GPGGA,185055.211,3827.496,N,17944.014,W,1,12,1.0,0.0,M,0.0,M,,*7D
$GPGSA,A,3,01,02,03,04,05,06,07,08,09,10,11,12,1.0,1.0,1.0*30
$GPRMC,185055.211,A,3827.496,N,17944.014,W,16661.0,244.0,180619,000.0,W*6A
$GPGGA,185056.211,3825.059,N,17949.033,W,1,12,1.0,0.0,M,0.0,M,,*73
$GPGSA,A,3,01,02,03,04,05,06,07,08,09,10,11,12,1.0,1.0,1.0*30
$GPRMC,185056.211,A,3825.059,N,17949.033,W,16667.7,244.0,180619,000.0,W*65
$GPGGA,185057.211,3822.622,N,17954.051,W,1,12,1.0,0.0,M,0.0,M,,*77
$GPGSA,A,3,01,02,03,04,05,06,07,08,09,10,11,12,1.0,1.0,1.0*30
$GPRMC,185057.211,A,3822.622,N,17954.051,W,16674.5,244.0,180619,000.0,W*61
$GPGGA,185058.211,3820.185,N,17959.069,W,1,12,1.0,0.0,M,0.0,M,,*76
$GPGSA,A,3,01,02,03,04,05,06,07,08,09,10,11,12,1.0,1.0,1.0*30
$GPRMC,185058.211,A,3820.185,N,17959.069,W,16681.2,244.0,180619,000.0,W*6D
$GPGGA,185059.211,3817.748,N,18004.088,W,1,12,1.0,0.0,M,0.0,M,,*75
$GPGSA,A,3,01,02,03,04,05,06,07,08,09,10,11,12,1.0,1.0,1.0*30
$GPRMC,185059.211,A,3817.748,N,18004.088,W,16688.0,244.0,180619,000.0,W*65
$GPGGA,185100.211,3815.311,N,18009.106,W,1,12,1.0,0.0,M,0.0,M,,*78
$GPGSA,A,3,01,02,03,04,05,06,07,08,09,10,11,12,1.0,1.0,1.0*30
$GPRMC,185100.211,A,3815.311,N,18009.106,W,16694.7,244.0,180619,000.0,W*62
$GPGGA,185101.211,3812.874,N,18014.124,W,1,12,1.0,0.0,M,0.0,M,,*7A
$GPGSA,A,3,01,02,03,04,05,06,07,08,09,10,11,12,1.0,1.0,1.0*30
$GPRMC,185101.211,A,3812.874,N,18014.124,W,16701.5,244.0,180619,000.0,W*6F
$GPGGA,185102.211,3810.437,N,18019.143,W,1,12,1.0,0.0,M,0.0,M,,*7C
$GPGSA,A,3,01,02,03,04,05,06,07,08,09,10,11,12,1.0,1.0,1.0*30
$GPRMC,185102.211,A,3810.437,N,18019.143,W,16708.2,244.0,180619,000.0,W*67
$GPGGA,185103.211,3808.000,N,18024.161,W,1,12,1.0,0.0,M,0.0,M,,*7A
$GPGSA,A,3,01,02,03,04,05,06,07,08,09,10,11,12,1.0,1.0,1.0*30
$GPRMC,185103.211,A,3808.000,N,18024.161,W,16715.0,244.0,180619,000.0,W*6F
$GPGGA,185104.211,3805.563,N,18029.179,W,1,12,1.0,0.0,M,0.0,M,,*74
$GPGSA,A,3,01,02,03,04,05,06,07,08,09,10,11,12,1.0,1.0,1.0*30
$GPRMC,185104.211,A,3805.563,N,18029.179,W,16721.7,244.0,180619,000.0,W*61
$GPGGA,185105.211,3803.126,N,18034.198,W,1,12,1.0,0.0,M,0.0,M,,*75
$GPGSA,A,3,01,02,03,04,05,06,07,08,09,10,11,12,1.0,1.0,1.0*30
$GPRMC,185105.211,A,3803.126,N,18034.198,W,16728.4,244.0,180619,000.0,W*6A
$GPGGA,185106.211,3800.689,N,18039.216,W,1,12,1.0,0.0,M,0.0,M,,*7F
$GPGSA,A,3,01,02,03,04,05,06,07,08,09,10,11,12,1.0,1.0,1.0*30
$GPRMC,185106.211,A,3800.689,N,18039.216,W,16735.1,244.0,180619,000.0,W*69
$GPGGA,185107.211,3758.251,N,18044.234,W,1,12,1.0,0.0,M,0.0,M,,*77
$GPGSA,A,3,01,02,03,04,05,06,07,08,09,10,11,12,1.0,1.0,1.0*30
$GPRMC,185107.211,A,3758.251,N,18044.234,W,16741.8,244.0,180619,000.0,W*6B
$GPGGA,185108.211,3755.814,N,18049.253,W,1,12,1.0,0.0,M,0.0,M,,*72
$GPGSA,A,3,01,02,03,04,05,06,07,08,09,10,11,12,1.0,1.0,1.0*30
$GPRMC,185108.211,A,3755.814,N,18049.253,W,16748.6,244.0,180619,000.0,W*69
$GPGGA,185109.211,3753.377,N,18054.271,W,1,12,1.0,0.0,M,0.0,M,,*77
$GPGSA,A,3,01,02,03,04,05,06,07,08,09,10,11,12,1.0,1.0,1.0*30
$GPRMC,185109.211,A,3753.377,N,18054.271,W,16755.3,244.0,180619,000.0,W*65
$GPGGA,185110.211,3750.940,N,18059.289,W,1,12,1.0,0.0,M,0.0,M,,*78
$GPGSA,A,3,01,02,03,04,05,06,07,08,09,10,11,12,1.0,1.0,1.0*30
$GPRMC,185110.211,A,3750.940,N,18059.289,W,16762.0,244.0,180619,000.0,W*6D
$GPGGA,185111.211,3748.503,N,18104.308,W,1,12,1.0,0.0,M,0.0,M,,*7A
$GPGSA,A,3,01,02,03,04,05,06,07,08,09,10,11,12,1.0,1.0,1.0*30
$GPRMC,185111.211,A,3748.503,N,18104.308,W,16768.6,244.0,180619,000.0,W*63
$GPGGA,185112.211,3746.066,N,18109.326,W,1,12,1.0,0.0,M,0.0,M,,*70
$GPGSA,A,3,01,02,03,04,05,06,07,08,09,10,11,12,1.0,1.0,1.0*30
$GPRMC,185112.211,A,3746.066,N,18109.326,W,16775.3,244.0,180619,000.0,W*60
$GPGGA,185113.211,3743.629,N,18114.344,W,1,12,1.0,0.0,M,0.0,M,,*71
$GPGSA,A,3,01,02,03,04,05,06,07,08,09,10,11,12,1.0,1.0,1.0*30
$GPRMC,185113.211,A,3743.629,N,18114.344,W,16782.0,244.0,180619,000.0,W*6A
$GPGGA,185114.211,3741.192,N,18119.362,W,1,12,1.0,0.0,M,0.0,M,,*7A
$GPGSA,A,3,01,02,03,04,05,06,07,08,09,10,11,12,1.0,1.0,1.0*30
$GPRMC,185114.211,A,3741.192,N,18119.362,W,16788.7,244.0,180619,000.0,W*6C
$GPGGA,185115.211,3738.755,N,18124.381,W,1,12,1.0,0.0,M,0.0,M,,*7B
$GPGSA,A,3,01,02,03,04,05,06,07,08,09,10,11,12,1.0,1.0,1.0*30
$GPRMC,185115.211,A,3738.755,N,18124.381,W,16795.4,244.0,180619,000.0,W*62
$GPGGA,185116.211,3736.318,N,18129.399,W,1,12,1.0,0.0,M,0.0,M,,*7F
$GPGSA,A,3,01,02,03,04,05,06,07,08,09,10,11,12,1.0,1.0,1.0*30
$GPRMC,185116.211,A,3736.318,N,18129.399,W,16802.0,244.0,180619,000.0,W*63
$GPGGA,185117.211,3733.881,N,18134.417,W,1,12,1.0,0.0,M,0.0,M,,*7D
$GPGSA,A,3,01,02,03,04,05,06,07,08,09,10,11,12,1.0,1.0,1.0*30
$GPRMC,185117.211,A,3733.881,N,18134.417,W,16808.7,244.0,180619,000.0,W*6C
$GPGGA,185118.211,3731.444,N,18139.436,W,1,12,1.0,0.0,M,0.0,M,,*7B
$GPGSA,A,3,01,02,03,04,05,06,07,08,09,10,11,12,1.0,1.0,1.0*30
$GPRMC,185118.211,A,3731.444,N,18139.436,W,16815.4,244.0,180619,000.0,W*65
$GPGGA,185119.211,3729.007,N,18144.454,W,1,12,1.0,0.0,M,0.0,M,,*7E
$GPGSA,A,3,01,02,03,04,05,06,07,08,09,10,11,12,1.0,1.0,1.0*30
$GPRMC,185119.211,A,3729.007,N,18144.454,W,16822.0,244.0,180619,000.0,W*60
$GPGGA,185120.211,3726.570,N,18149.472,W,1,12,1.0,0.0,M,0.0,M,,*77
$GPGSA,A,3,01,02,03,04,05,06,07,08,09,10,11,12,1.0,1.0,1.0*30
$GPRMC,185120.211,A,3726.570,N,18149.472,W,16828.7,244.0,180619,000.0,W*64
$GPGGA,185121.211,3724.133,N,18154.491,W,1,12,1.0,0.0,M,0.0,M,,*76
$GPGSA,A,3,01,02,03,04,05,06,07,08,09,10,11,12,1.0,1.0,1.0*30
$GPRMC,185121.211,A,3724.133,N,18154.491,W,16835.3,244.0,180619,000.0,W*6D
$GPGGA,185122.211,3721.696,N,18159.509,W,1,12,1.0,0.0,M,0.0,M,,*75
$GPGSA,A,3,01,02,03,04,05,06,07,08,09,10,11,12,1.0,1.0,1.0*30
$GPRMC,185122.211,A,3721.696,N,18159.509,W,16841.9,244.0,180619,000.0,W*67
$GPGGA,185123.211,3719.259,N,18204.527,W,1,12,1.0,0.0,M,0.0,M,,*7F
$GPGSA,A,3,01,02,03,04,05,06,07,08,09,10,11,12,1.0,1.0,1.0*30
$GPRMC,185123.211,A,3719.259,N,18204.527,W,16848.6,244.0,180619,000.0,W*6B
$GPGGA,185124.211,3716.822,N,18209.546,W,1,12,1.0,0.0,M,0.0,M,,*7B
$GPGSA,A,3,01,02,03,04,05,06,07,08,09,10,11,12,1.0,1.0,1.0*30
$GPRMC,185124.211,A,3716.822,N,18209.546,W,16855.2,244.0,180619,000.0,W*67
$GPGGA,185125.211,3714.385,N,18214.564,W,1,12,1.0,0.0,M,0.0,M,,*72
$GPGSA,A,3,01,02,03,04,05,06,07,08,09,10,11,12,1.0,1.0,1.0*30
$GPRMC,185125.211,A,3714.385,N,18214.564,W,16861.8,244.0,180619,000.0,W*63
$GPGGA,185126.211,3711.948,N,18219.582,W,1,12,1.0,0.0,M,0.0,M,,*7A
$GPGSA,A,3,01,02,03,04,05,06,07,08,09,10,11,12,1.0,1.0,1.0*30
$GPRMC,185126.211,A,3711.948,N,18219.582,W,16868.4,244.0,180619,000.0,W*6E
$GPGGA,185127.211,3709.511,N,18224.601,W,1,12,1.0,0.0,M,0.0,M,,*74
$GPGSA,A,3,01,02,03,04,05,06,07,08,09,10,11,12,1.0,1.0,1.0*30
$GPRMC,185127.211,A,3709.511,N,18224.601,W,16875.0,244.0,180619,000.0,W*68
$GPGGA,185128.211,3707.074,N,18229.619,W,1,12,1.0,0.0,M,0.0,M,,*77
$GPGSA,A,3,01,02,03,04,05,06,07,08,09,10,11,12,1.0,1.0,1.0*30
$GPRMC,185128.211,A,3707.074,N,18229.619,W,16881.6,244.0,180619,000.0,W*66
$GPGGA,185129.211,3704.637,N,18234.637,W,1,12,1.0,0.0,M,0.0,M,,*74
$GPGSA,A,3,01,02,03,04,05,06,07,08,09,10,11,12,1.0,1.0,1.0*30
$GPRMC,185129.211,A,3704.637,N,18234.637,W,16888.2,244.0,180619,000.0,W*68
$GPGGA,185130.211,3702.200,N,18239.656,W,1,12,1.0,0.0,M,0.0,M,,*70
$GPGSA,A,3,01,02,03,04,05,06,07,08,09,10,11,12,1.0,1.0,1.0*30
$GPRMC,185130.211,A,3702.200,N,18239.656,W,16894.8,244.0,180619,000.0,W*6B
$GPGGA,185131.211,3659.763,N,18244.674,W,1,12,1.0,0.0,M,0.0,M,,*74
$GPGSA,A,3,01,02,03,04,05,06,07,08,09,10,11,12,1.0,1.0,1.0*30
$GPRMC,185131.211,A,3659.763,N,18244.674,W,16901.4,244.0,180619,000.0,W*6E
$GPGGA,185132.211,3657.326,N,18249.692,W,1,12,1.0,0.0,M,0.0,M,,*79
$GPGSA,A,3,01,02,03,04,05,06,07,08,09,10,11,12,1.0,1.0,1.0*30
$GPRMC,185132.211,A,3657.326,N,18249.692,W,16908.0,244.0,180619,000.0,W*6E
$GPGGA,185133.211,3654.889,N,18254.711,W,1,12,1.0,0.0,M,0.0,M,,*73
$GPGSA,A,3,01,02,03,04,05,06,07,08,09,10,11,12,1.0,1.0,1.0*30
$GPRMC,185133.211,A,3654.889,N,18254.711,W,16914.6,244.0,180619,000.0,W*6F
$GPGGA,185134.211,3652.452,N,18259.729,W,1,12,1.0,0.0,M,0.0,M,,*7E
$GPGSA,A,3,01,02,03,04,05,06,07,08,09,10,11,12,1.0,1.0,1.0*30
$GPRMC,185134.211,A,3652.452,N,18259.729,W,16921.2,244.1,180619,000.0,W*61
$GPGGA,185135.211,3650.015,N,18304.747,W,1,12,1.0,0.0,M,0.0,M,,*7B
$GPGSA,A,3,01,02,03,04,05,06,07,08,09,10,11,12,1.0,1.0,1.0*30
$GPRMC,185135.211,A,3650.015,N,18304.747,W,16927.7,244.1,180619,000.0,W*67
$GPGGA,185136.211,3647.578,N,18309.765,W,1,12,1.0,0.0,M,0.0,M,,*7D
$GPGSA,A,3,01,02,03,04,05,06,07,08,09,10,11,12,1.0,1.0,1.0*30
$GPRMC,185136.211,A,3647.578,N,18309.765,W,16934.3,244.1,180619,000.0,W*67
$GPGGA,185137.211,3645.141,N,18314.784,W,1,12,1.0,0.0,M,0.0,M,,*73
$GPGSA,A,3,01,02,03,04,05,06,07,08,09,10,11,12,1.0,1.0,1.0*30
$GPRMC,185137.211,A,3645.141,N,18314.784,W,16940.9,244.1,180619,000.0,W*60
$GPGGA,185138.211,3642.704,N,18319.802,W,1,12,1.0,0.0,M,0.0,M,,*70
$GPGSA,A,3,01,02,03,04,05,06,07,08,09,10,11,12,1.0,1.0,1.0*30
$GPRMC,185138.211,A,3642.704,N,18319.802,W,16947.4,244.1,180619,000.0,W*69
$GPGGA,185139.211,3640.267,N,18324.820,W,1,12,1.0,0.0,M,0.0,M,,*7D
$GPGSA,A,3,01,02,03,04,05,06,07,08,09,10,11,12,1.0,1.0,1.0*30
$GPRMC,185139.211,A,3640.267,N,18324.820,W,16954.0,244.1,180619,000.0,W*62
$GPGGA,185140.211,3637.830,N,18329.839,W,1,12,1.0,0.0,M,0.0,M,,*7E
$GPGSA,A,3,01,02,03,04,05,06,07,08,09,10,11,12,1.0,1.0,1.0*30
$GPRMC,185140.211,A,3637.830,N,18329.839,W,16960.5,244.1,180619,000.0,W*63
$GPGGA,185141.211,3635.393,N,18334.857,W,1,12,1.0,0.0,M,0.0,M,,*7B
$GPGSA,A,3,01,02,03,04,05,06,07,08,09,10,11,12,1.0,1.0,1.0*30
$GPRMC,185141.211,A,3635.393,N,18334.857,W,16967.0,244.1,180619,000.0,W*64
$GPGGA,185142.211,3632.956,N,18339.875,W,1,12,1.0,0.0,M,0.0,M,,*71
$GPGSA,A,3,01,02,03,04,05,06,07,08,09,10,11,12,1.0,1.0,1.0*30
$GPRMC,185142.211,A,3632.956,N,18339.875,W,16973.6,244.1,180619,000.0,W*6D
$GPGGA,185143.211,3630.519,N,18344.894,W,1,12,1.0,0.0,M,0.0,M,,*70
$GPGSA,A,3,01,02,03,04,05,06,07,08,09,10,11,12,1.0,1.0,1.0*30
$GPRMC,185143.211,A,3630.519,N,18344.894,W,16980.1,244.1,180619,000.0,W*67
$GPGGA,185144.211,3628.082,N,18349.912,W,1,12,1.0,0.0,M,0.0,M,,*7B
$GPGSA,A,3,01,02,03,04,05,06,07,08,09,10,11,12,1.0,1.0,1.0*30
$GPRMC,185144.211,A,3628.082,N,18349.912,W,16986.6,244.1,180619,000.0,W*6D
$GPGGA,185145.211,3625.645,N,18354.930,W,1,12,1.0,0.0,M,0.0,M,,*76
$GPGSA,A,3,01,02,03,04,05,06,07,08,09,10,11,12,1.0,1.0,1.0*30
$GPRMC,185145.211,A,3625.645,N,18354.930,W,16993.1,244.1,180619,000.0,W*63
$GPGGA,185146.211,3623.208,N,18359.949,W,1,12,1.0,0.0,M,0.0,M,,*7D
$GPGSA,A,3,01,02,03,04,05,06,07,08,09,10,11,12,1.0,1.0,1.0*30
$GPRMC,185146.211,A,3623.208,N,18359.949,W,16999.6,244.1,180619,000.0,W*65
$GPGGA,185147.211,3620.771,N,18404.967,W,1,12,1.0,0.0,M,0.0,M,,*77
$GPGSA,A,3,01,02,03,04,05,06,07,08,09,10,11,12,1.0,1.0,1.0*30
$GPRMC,185147.211,A,3620.771,N,18404.967,W,17006.1,244.1,180619,000.0,W*66
$GPGGA,185148.211,3618.334,N,18409.985,W,1,12,1.0,0.0,M,0.0,M,,*77
$GPGSA,A,3,01,02,03,04,05,06,07,08,09,10,11,12,1.0,1.0,1.0*30
$GPRMC,185148.211,A,3618.334,N,18409.985,W,17012.6,244.1,180619,000.0,W*64
$GPGGA,185149.211,3615.897,N,18415.004,W,1,12,1.0,0.0,M,0.0,M,,*74
$GPGSA,A,3,01,02,03,04,05,06,07,08,09,10,11,12,1.0,1.0,1.0*30
$GPRMC,185149.211,A,3615.897,N,18415.004,W,17019.1,244.1,180619,000.0,W*6B
$GPGGA,185150.211,3613.460,N,18420.022,W,1,12,1.0,0.0,M,0.0,M,,*7C
$GPGSA,A,3,01,02,03,04,05,06,07,08,09,10,11,12,1.0,1.0,1.0*30
$GPRMC,185150.211,A,3613.460,N,18420.022,W,17025.6,244.1,180619,000.0,W*6B
$GPGGA,185151.211,3611.022,N,18425.040,W,1,12,1.0,0.0,M,0.0,M,,*7C
$GPGSA,A,3,01,02,03,04,05,06,07,08,09,10,11,12,1.0,1.0,1.0*30
$GPRMC,185151.211,A,3611.022,N,18425.040,W,17032.1,244.1,180619,000.0,W*6A
$GPGGA,185152.211,3608.585,N,18430.059,W,1,12,1.0,0.0,M,0.0,M,,*73
$GPGSA,A,3,01,02,03,04,05,06,07,08,09,10,11,12,1.0,1.0,1.0*30
$GPRMC,185152.211,A,3608.585,N,18430.059,W,17038.6,244.1,180619,000.0,W*68
$GPGGA,185153.211,3606.148,N,18435.077,W,1,12,1.0,0.0,M,0.0,M,,*70
$GPGSA,A,3,01,02,03,04,05,06,07,08,09,10,11,12,1.0,1.0,1.0*30
$GPRMC,185153.211,A,3606.148,N,18435.077,W,17045.1,244.1,180619,000.0,W*66
$GPGGA,185154.211,3603.711,N,18440.095,W,1,12,1.0,0.0,M,0.0,M,,*76
$GPGSA,A,3,01,02,03,04,05,06,07,08,09,10,11,12,1.0,1.0,1.0*30
$GPRMC,185154.211,A,3603.711,N,18440.095,W,17051.5,244.1,180619,000.0,W*61
$GPGGA,185155.211,3601.274,N,18445.114,W,1,12,1.0,0.0,M,0.0,M,,*7E
$GPGSA,A,3,01,02,03,04,05,06,07,08,09,10,11,12,1.0,1.0,1.0*30
$GPRMC,185155.211,A,3601.274,N,18445.114,W,17058.0,244.1,180619,000.0,W*65
$GPGGA,185156.211,3558.837,N,18450.132,W,1,12,1.0,0.0,M,0.0,M,,*7F
$GPGSA,A,3,01,02,03,04,05,06,07,08,09,10,11,12,1.0,1.0,1.0*30
$GPRMC,185156.211,A,3558.837,N,18450.132,W,17064.4,244.1,180619,000.0,W*6F
$GPGGA,185157.211,3556.400,N,18455.150,W,1,12,1.0,0.0,M,0.0,M,,*79
$GPGSA,A,3,01,02,03,04,05,06,07,08,09,10,11,12,1.0,1.0,1.0*30
$GPRMC,185157.211,A,3556.400,N,18455.150,W,17070.9,244.1,180619,000.0,W*61
$GPGGA,185158.211,3553.963,N,18500.168,W,1,12,1.0,0.0,M,0.0,M,,*71
$GPGSA,A,3,01,02,03,04,05,06,07,08,09,10,11,12,1.0,1.0,1.0*30
$GPRMC,185158.211,A,3553.963,N,18500.168,W,17077.3,244.1,180619,000.0,W*64
$GPGGA,185159.211,3551.526,N,18505.187,W,1,12,1.0,0.0,M,0.0,M,,*7B
$GPGSA,A,3,01,02,03,04,05,06,07,08,09,10,11,12,1.0,1.0,1.0*30
$GPRMC,185159.211,A,3551.526,N,18505.187,W,17083.8,244.1,180619,000.0,W*6E
$GPGGA,185200.211,3549.089,N,18510.205,W,1,12,1.0,0.0,M,0.0,M,,*70
$GPGSA,A,3,01,02,03,04,05,06,07,08,09,10,11,12,1.0,1.0,1.0*30
$GPRMC,185200.211,A,3549.089,N,18510.205,W,17090.2,244.1,180619,000.0,W*6D
$GPGGA,185201.211,3546.652,N,18515.223,W,1,12,1.0,0.0,M,0.0,M,,*7F
$GPGSA,A,3,01,02,03,04,05,06,07,08,09,10,11,12,1.0,1.0,1.0*30
$GPRMC,185201.211,A,3546.652,N,18515.223,W,17096.6,244.1,180619,000.0,W*60
$GPGGA,185202.211,3544.215,N,18520.242,W,1,12,1.0,0.0,M,0.0,M,,*78
$GPGSA,A,3,01,02,03,04,05,06,07,08,09,10,11,12,1.0,1.0,1.0*30
$GPRMC,185202.211,A,3544.215,N,18520.242,W,17103.1,244.1,180619,000.0,W*6D
$GPGGA,185203.211,3541.778,N,18525.260,W,1,12,1.0,0.0,M,0.0,M,,*77
$GPGSA,A,3,01,02,03,04,05,06,07,08,09,10,11,12,1.0,1.0,1.0*30
$GPRMC,185203.211,A,3541.778,N,18525.260,W,17109.5,244.1,180619,000.0,W*6C
$GPGGA,185204.211,3539.341,N,18530.278,W,1,12,1.0,0.0,M,0.0,M,,*7C
$GPGSA,A,3,01,02,03,04,05,06,07,08,09,10,11,12,1.0,1.0,1.0*30
$GPRMC,185204.211,A,3539.341,N,18530.278,W,17115.9,244.1,180619,000.0,W*66
$GPGGA,185205.211,3536.904,N,18535.297,W,1,12,1.0,0.0,M,0.0,M,,*7D
$GPGSA,A,3,01,02,03,04,05,06,07,08,09,10,11,12,1.0,1.0,1.0*30
$GPRMC,185205.211,A,3536.904,N,18535.297,W,17122.3,244.1,180619,000.0,W*69
$GPGGA,185206.211,3534.467,N,18540.315,W,1,12,1.0,0.0,M,0.0,M,,*7D
$GPGSA,A,3,01,02,03,04,05,06,07,08,09,10,11,12,1.0,1.0,1.0*30
$GPRMC,185206.211,A,3534.467,N,18540.315,W,17128.7,244.1,180619,000.0,W*67
$GPGGA,185207.211,3532.030,N,18545.333,W,1,12,1.0,0.0,M,0.0,M,,*7D
$GPGSA,A,3,01,02,03,04,05,06,07,08,09,10,11,12,1.0,1.0,1.0*30
$GPRMC,185207.211,A,3532.030,N,18545.333,W,17135.1,244.1,180619,000.0,W*6D
$GPGGA,185208.211,3529.593,N,18550.352,W,1,12,1.0,0.0,M,0.0,M,,*77
$GPGSA,A,3,01,02,03,04,05,06,07,08,09,10,11,12,1.0,1.0,1.0*30
$GPRMC,185208.211,A,3529.593,N,18550.352,W,17141.5,244.1,180619,000.0,W*60
$GPGGA,185209.211,3527.156,N,18555.370,W,1,12,1.0,0.0,M,0.0,M,,*70
$GPGSA,A,3,01,02,03,04,05,06,07,08,09,10,11,12,1.0,1.0,1.0*30
$GPRMC,185209.211,A,3527.156,N,18555.370,W,17147.9,244.1,180619,000.0,W*6D
$GPGGA,185210.211,3524.719,N,18600.388,W,1,12,1.0,0.0,M,0.0,M,,*72
$GPGSA,A,3,01,02,03,04,05,06,07,08,09,10,11,12,1.0,1.0,1.0*30
$GPRMC,185210.211,A,3524.719,N,18600.388,W,17154.2,244.1,180619,000.0,W*66
$GPGGA,185211.211,3522.282,N,18605.407,W,1,12,1.0,0.0,M,0.0,M,,*77
$GPGSA,A,3,01,02,03,04,05,06,07,08,09,10,11,12,1.0,1.0,1.0*30
$GPRMC,185211.211,A,3522.282,N,18605.407,W,17160.6,244.1,180619,000.0,W*60
$GPGGA,185212.211,3519.845,N,18610.425,W,1,12,1.0,0.0,M,0.0,M,,*79
$GPGSA,A,3,01,02,03,04,05,06,07,08,09,10,11,12,1.0,1.0,1.0*30
$GPRMC,185212.211,A,3519.845,N,18610.425,W,17167.0,244.1,180619,000.0,W*6F
$GPGGA,185213.211,3517.408,N,18615.443,W,1,12,1.0,0.0,M,0.0,M,,*76
$GPGSA,A,3,01,02,03,04,05,06,07,08,09,10,11,12,1.0,1.0,1.0*30
$GPRMC,185213.211,A,3517.408,N,18615.443,W,17173.4,244.1,180619,000.0,W*61
$GPGGA,185214.211,3514.971,N,18620.462,W,1,12,1.0,0.0,M,0.0,M,,*74
$GPGSA,A,3,01,02,03,04,05,06,07,08,09,10,11,12,1.0,1.0,1.0*30
$GPRMC,185214.211,A,3514.971,N,18620.462,W,17179.7,244.1,180619,000.0,W*6A
$GPGGA,185215.211,3512.534,N,18625.480,W,1,12,1.0,0.0,M,0.0,M,,*77
$GPGSA,A,3,01,02,03,04,05,06,07,08,09,10,11,12,1.0,1.0,1.0*30
$GPRMC,185215.211,A,3512.534,N,18625.480,W,17186.1,244.1,180619,000.0,W*6F
$GPGGA,185216.211,3510.097,N,18630.498,W,1,12,1.0,0.0,M,0.0,M,,*77
$GPGSA,A,3,01,02,03,04,05,06,07,08,09,10,11,12,1.0,1.0,1.0*30
$GPRMC,185216.211,A,3510.097,N,18630.498,W,17192.4,244.1,180619,000.0,W*6F
$GPGGA,185217.211,3507.660,N,18635.517,W,1,12,1.0,0.0,M,0.0,M,,*7D
$GPGSA,A,3,01,02,03,04,05,06,07,08,09,10,11,12,1.0,1.0,1.0*30
$GPRMC,185217.211,A,3507.660,N,18635.517,W,17198.7,244.1,180619,000.0,W*6C
$GPGGA,185218.211,3505.223,N,18640.535,W,1,12,1.0,0.0,M,0.0,M,,*71
$GPGSA,A,3,01,02,03,04,05,06,07,08,09,10,11,12,1.0,1.0,1.0*30
$GPRMC,185218.211,A,3505.223,N,18640.535,W,17205.1,244.1,180619,000.0,W*61
$GPGGA,185219.211,3502.786,N,18645.553,W,1,12,1.0,0.0,M,0.0,M,,*78
$GPGSA,A,3,01,02,03,04,05,06,07,08,09,10,11,12,1.0,1.0,1.0*30
$GPRMC,185219.211,A,3502.786,N,18645.553,W,17211.4,244.1,180619,000.0,W*68
$GPGGA,185220.211,3500.349,N,18650.571,W,1,12,1.0,0.0,M,0.0,M,,*73
$GPGSA,A,3,01,02,03,04,05,06,07,08,09,10,11,12,1.0,1.0,1.0*30
$GPRMC,185220.211,A,3500.349,N,18650.571,W,17217.7,244.1,180619,000.0,W*66
$GPGGA,185221.211,3457.912,N,18655.590,W,1,12,1.0,0.0,M,0.0,M,,*7F
$GPGSA,A,3,01,02,03,04,05,06,07,08,09,10,11,12,1.0,1.0,1.0*30
$GPRMC,185221.211,A,3457.912,N,18655.590,W,17224.1,244.1,180619,000.0,W*6C
$GPGGA,185222.211,3455.475,N,18700.608,W,1,12,1.0,0.0,M,0.0,M,,*71
$GPGSA,A,3,01,02,03,04,05,06,07,08,09,10,11,12,1.0,1.0,1.0*30
$GPRMC,185222.211,A,3455.475,N,18700.608,W,17230.4,244.1,180619,000.0,W*62
$GPGGA,185223.211,3453.038,N,18705.626,W,1,12,1.0,0.0,M,0.0,M,,*72
$GPGSA,A,3,01,02,03,04,05,06,07,08,09,10,11,12,1.0,1.0,1.0*30
$GPRMC,185223.211,A,3453.038,N,18705.626,W,17236.7,244.1,180619,000.0,W*64
$GPGGA,185224.211,3450.601,N,18710.645,W,1,12,1.0,0.0,M,0.0,M,,*7B
$GPGSA,A,3,01,02,03,04,05,06,07,08,09,10,11,12,1.0,1.0,1.0*30
$GPRMC,185224.211,A,3450.601,N,18710.645,W,17243.0,244.1,180619,000.0,W*68
$GPGGA,185225.211,3448.164,N,18715.663,W,1,12,1.0,0.0,M,0.0,M,,*76
$GPGSA,A,3,01,02,03,04,05,06,07,08,09,10,11,12,1.0,1.0,1.0*30
$GPRMC,185225.211,A,3448.164,N,18715.663,W,17249.3,244.1,180619,000.0,W*6C
$GPGGA,185226.211,3445.727,N,18720.681,W,1,12,1.0,0.0,M,0.0,M,,*73
$GPGSA,A,3,01,02,03,04,05,06,07,08,09,10,11,12,1.0,1.0,1.0*30
$GPRMC,185226.211,A,3445.727,N,18720.681,W,17255.6,244.1,180619,000.0,W*61
$GPGGA,185227.211,3443.290,N,18725.700,W,1,12,1.0,0.0,M,0.0,M,,*70
$GPGSA,A,3,01,02,03,04,05,06,07,08,09,10,11,12,1.0,1.0,1.0*30
$GPRMC,185227.211,A,3443.290,N,18725.700,W,17261.8,244.1,180619,000.0,W*6B
$GPGGA,185228.211,3440.853,N,18730.718,W,1,12,1.0,0.0,M,0.0,M,,*74
$GPGSA,A,3,01,02,03,04,05,06,07,08,09,10,11,12,1.0,1.0,1.0*30
$GPRMC,185228.211,A,3440.853,N,18730.718,W,17268.1,244.1,180619,000.0,W*6F
$GPGGA,185229.211,3438.416,N,18735.736,W,1,12,1.0,0.0,M,0.0,M,,*7E
$GPGSA,A,3,01,02,03,04,05,06,07,08,09,10,11,12,1.0,1.0,1.0*30
$GPRMC,185229.211,A,3438.416,N,18735.736,W,17274.4,244.1,180619,000.0,W*6D
$GPGGA,185230.211,3435.979,N,18740.755,W,1,12,1.0,0.0,M,0.0,M,,*78
$GPGSA,A,3,01,02,03,04,05,06,07,08,09,10,11,12,1.0,1.0,1.0*30
$GPRMC,185230.211,A,3435.979,N,18740.755,W,17280.7,244.1,180619,000.0,W*63
$GPGGA,185231.211,3433.542,N,18745.773,W,1,12,1.0,0.0,M,0.0,M,,*7A
$GPGSA,A,3,01,02,03,04,05,06,07,08,09,10,11,12,1.0,1.0,1.0*30
$GPRMC,185231.211,A,3433.542,N,18745.773,W,17286.9,244.1,180619,000.0,W*69
$GPGGA,185232.211,3431.105,N,18750.791,W,1,12,1.0,0.0,M,0.0,M,,*74
$GPGSA,A,3,01,02,03,04,05,06,07,08,09,10,11,12,1.0,1.0,1.0*30
$GPRMC,185232.211,A,3431.105,N,18750.791,W,17293.2,244.1,180619,000.0,W*68
$GPGGA,185233.211,3428.668,N,18755.810,W,1,12,1.0,0.0,M,0.0,M,,*72
$GPGSA,A,3,01,02,03,04,05,06,07,08,09,10,11,12,1.0,1.0,1.0*30
$GPRMC,185233.211,A,3428.668,N,18755.810,W,17299.4,244.1,180619,000.0,W*62
$GPGGA,185234.211,3426.231,N,18800.828,W,1,12,1.0,0.0,M,0.0,M,,*77
$GPGSA,A,3,01,02,03,04,05,06,07,08,09,10,11,12,1.0,1.0,1.0*30
$GPRMC,185234.211,A,3426.231,N,18800.828,W,17305.7,244.1,180619,000.0,W*60
$GPGGA,185235.211,3423.793,N,18805.846,W,1,12,1.0,0.0,M,0.0,M,,*73
$GPGSA,A,3,01,02,03,04,05,06,07,08,09,10,11,12,1.0,1.0,1.0*30
$GPRMC,185235.211,A,3423.793,N,18805.846,W,17311.9,244.1,180619,000.0,W*6F
$GPGGA,185236.211,3421.356,N,18810.865,W,1,12,1.0,0.0,M,0.0,M,,*7A
$GPGSA,A,3,01,02,03,04,05,06,07,08,09,10,11,12,1.0,1.0,1.0*30
$GPRMC,185236.211,A,3421.356,N,18810.865,W,17318.2,244.1,180619,000.0,W*64
$GPGGA,185237.211,3418.919,N,18815.883,W,1,12,1.0,0.0,M,0.0,M,,*7D
$GPGSA,A,3,01,02,03,04,05,06,07,08,09,10,11,12,1.0,1.0,1.0*30
$GPRMC,185237.211,A,3418.919,N,18815.883,W,17324.4,244.1,180619,000.0,W*6A
$GPGGA,185238.211,3416.482,N,18820.901,W,1,12,1.0,0.0,M,0.0,M,,*7E
$GPGSA,A,3,01,02,03,04,05,06,07,08,09,10,11,12,1.0,1.0,1.0*30
$GPRMC,185238.211,A,3416.482,N,18820.901,W,17330.6,244.1,180619,000.0,W*6E
$GPGGA,185239.211,3414.045,N,18825.920,W,1,12,1.0,0.0,M,0.0,M,,*74
$GPGSA,A,3,01,02,03,04,05,06,07,08,09,10,11,12,1.0,1.0,1.0*30
$GPRMC,185239.211,A,3414.045,N,18825.920,W,17336.8,244.1,180619,000.0,W*6C
$GPGGA,185240.211,3411.608,N,18830.938,W,1,12,1.0,0.0,M,0.0,M,,*7D
$GPGSA,A,3,01,02,03,04,05,06,07,08,09,10,11,12,1.0,1.0,1.0*30
$GPRMC,185240.211,A,3411.608,N,18830.938,W,17343.0,244.1,180619,000.0,W*6F
$GPGGA,185241.211,3409.171,N,18835.956,W,1,12,1.0,0.0,M,0.0,M,,*71
$GPGSA,A,3,01,02,03,04,05,06,07,08,09,10,11,12,1.0,1.0,1.0*30
$GPRMC,185241.211,A,3409.171,N,18835.956,W,17349.2,244.1,180619,000.0,W*6B
$GPGGA,185242.211,3406.734,N,18840.974,W,1,12,1.0,0.0,M,0.0,M,,*78
$GPGSA,A,3,01,02,03,04,05,06,07,08,09,10,11,12,1.0,1.0,1.0*30
$GPRMC,185242.211,A,3406.734,N,18840.974,W,17355.4,244.1,180619,000.0,W*69
$GPGGA,185243.211,3404.297,N,18845.993,W,1,12,1.0,0.0,M,0.0,M,,*7B
$GPGSA,A,3,01,02,03,04,05,06,07,08,09,10,11,12,1.0,1.0,1.0*30
$GPRMC,185243.211,A,3404.297,N,18845.993,W,17361.6,244.1,180619,000.0,W*6F
$GPGGA,185244.211,3401.860,N,18851.011,W,1,12,1.0,0.0,M,0.0,M,,*7D
$GPGSA,A,3,01,02,03,04,05,06,07,08,09,10,11,12,1.0,1.0,1.0*30
$GPRMC,185244.211,A,3401.860,N,18851.011,W,17367.8,244.1,180619,000.0,W*61
$GPGGA,185245.211,3359.423,N,18856.029,W,1,12,1.0,0.0,M,0.0,M,,*71
$GPGSA,A,3,01,02,03,04,05,06,07,08,09,10,11,12,1.0,1.0,1.0*30
$GPRMC,185245.211,A,3359.423,N,18856.029,W,17374.0,244.1,180619,000.0,W*67
$GPGGA,185246.211,3356.986,N,18901.048,W,1,12,1.0,0.0,M,0.0,M,,*7B
$GPGSA,A,3,01,02,03,04,05,06,07,08,09,10,11,12,1.0,1.0,1.0*30
$GPRMC,185246.211,A,3356.986,N,18901.048,W,17380.2,244.1,180619,000.0,W*64
$GPGGA,185247.211,3354.549,N,18906.066,W,1,12,1.0,0.0,M,0.0,M,,*7C
$GPGSA,A,3,01,02,03,04,05,06,07,08,09,10,11,12,1.0,1.0,1.0*30
$GPRMC,185247.211,A,3354.549,N,18906.066,W,17386.3,244.1,180619,000.0,W*64
$GPGGA,185248.211,3352.112,N,18911.084,W,1,12,1.0,0.0,M,0.0,M,,*75
$GPGSA,A,3,01,02,03,04,05,06,07,08,09,10,11,12,1.0,1.0,1.0*30
$GPRMC,185248.211,A,3352.112,N,18911.084,W,17392.5,244.1,180619,000.0,W*6E
$GPGGA,185249.211,3349.675,N,18916.103,W,1,12,1.0,0.0,M,0.0,M,,*71
$GPGSA,A,3,01,02,03,04,05,06,07,08,09,10,11,12,1.0,1.0,1.0*30
$GPRMC,185249.211,A,3349.675,N,18916.103,W,17398.7,244.1,180619,000.0,W*62
$GPGGA,185250.211,3347.238,N,18921.121,W,1,12,1.0,0.0,M,0.0,M,,*7E
$GPGSA,A,3,01,02,03,04,05,06,07,08,09,10,11,12,1.0,1.0,1.0*30
$GPRMC,185250.211,A,3347.238,N,18921.121,W,17404.8,244.1,180619,000.0,W*60
$GPGGA,185251.211,3344.801,N,18926.139,W,1,12,1.0,0.0,M,0.0,M,,*72
$GPGSA,A,3,01,02,03,04,05,06,07,08,09,10,11,12,1.0,1.0,1.0*30
$GPRMC,185251.211,A,3344.801,N,18926.139,W,17411.0,244.1,180619,000.0,W*60
$GPGGA,185252.211,3342.364,N,18931.158,W,1,12,1.0,0.0,M,0.0,M,,*7E
$GPGSA,A,3,01,02,03,04,05,06,07,08,09,10,11,12,1.0,1.0,1.0*30
$GPRMC,185252.211,A,3342.364,N,18931.158,W,17417.1,244.1,180619,000.0,W*6B
$GPGGA,185253.211,3339.927,N,18936.176,W,1,12,1.0,0.0,M,0.0,M,,*75
$GPGSA,A,3,01,02,03,04,05,06,07,08,09,10,11,12,1.0,1.0,1.0*30
$GPRMC,185253.211,A,3339.927,N,18936.176,W,17423.3,244.1,180619,000.0,W*65
$GPGGA,185254.211,3337.490,N,18941.194,W,1,12,1.0,0.0,M,0.0,M,,*71
$GPGSA,A,3,01,02,03,04,05,06,07,08,09,10,11,12,1.0,1.0,1.0*30
$GPRMC,185254.211,A,3337.490,N,18941.194,W,17429.4,244.1,180619,000.0,W*6C
$GPGGA,185255.211,3335.053,N,18946.213,W,1,12,1.0,0.0,M,0.0,M,,*72
$GPGSA,A,3,01,02,03,04,05,06,07,08,09,10,11,12,1.0,1.0,1.0*30
$GPRMC,185255.211,A,3335.053,N,18946.213,W,17435.5,244.1,180619,000.0,W*63
$GPGGA,185256.211,3332.616,N,18951.231,W,1,12,1.0,0.0,M,0.0,M,,*77
$GPGSA,A,3,01,02,03,04,05,06,07,08,09,10,11,12,1.0,1.0,1.0*30
$GPRMC,185256.211,A,3332.616,N,18951.231,W,17441.6,244.1,180619,000.0,W*66
$GPGGA,185257.211,3330.179,N,18956.249,W,1,12,1.0,0.0,M,0.0,M,,*72
$GPGSA,A,3,01,02,03,04,05,06,07,08,09,10,11,12,1.0,1.0,1.0*30
$GPRMC,185257.211,A,3330.179,N,18956.249,W,17447.7,244.1,180619,000.0,W*64
$GPGGA,185258.211,3327.742,N,19001.268,W,1,12,1.0,0.0,M,0.0,M,,*7C
$GPGSA,A,3,01,02,03,04,05,06,07,08,09,10,11,12,1.0,1.0,1.0*30
$GPRMC,185258.211,A,3327.742,N,19001.268,W,17453.8,244.1,180619,000.0,W*60
$GPGGA,185259.211,3325.305,N,19006.286,W,1,12,1.0,0.0,M,0.0,M,,*7F
$GPGSA,A,3,01,02,03,04,05,06,07,08,09,10,11,12,1.0,1.0,1.0*30
$GPRMC,185259.211,A,3325.305,N,19006.286,W,17459.9,244.1,180619,000.0,W*68
$GPGGA,185300.211,3322.868,N,19011.304,W,1,12,1.0,0.0,M,0.0,M,,*78
$GPGSA,A,3,01,02,03,04,05,06,07,08,09,10,11,12,1.0,1.0,1.0*30
$GPRMC,185300.211,A,3322.868,N,19011.304,W,17466.0,244.1,180619,000.0,W*6A
$GPGGA,185301.211,3320.431,N,19016.323,W,1,12,1.0,0.0,M,0.0,M,,*79
$GPGSA,A,3,01,02,03,04,05,06,07,08,09,10,11,12,1.0,1.0,1.0*30
$GPRMC,185301.211,A,3320.431,N,19016.323,W,17472.1,244.1,180619,000.0,W*6F
$GPGGA,185302.211,3317.994,N,19021.341,W,1,12,1.0,0.0,M,0.0,M,,*7C
$GPGSA,A,3,01,02,03,04,05,06,07,08,09,10,11,12,1.0,1.0,1.0*30
$GPRMC,185302.211,A,3317.994,N,19021.341,W,17478.2,244.1,180619,000.0,W*63
$GPGGA,185303.211,3315.557,N,19026.359,W,1,12,1.0,0.0,M,0.0,M,,*72
$GPGSA,A,3,01,02,03,04,05,06,07,08,09,10,11,12,1.0,1.0,1.0*30
$GPRMC,185303.211,A,3315.557,N,19026.359,W,17484.3,244.1,180619,000.0,W*6F
$GPGGA,185304.211,3313.120,N,19031.377,W,1,12,1.0,0.0,M,0.0,M,,*7D
$GPGSA,A,3,01,02,03,04,05,06,07,08,09,10,11,12,1.0,1.0,1.0*30
$GPRMC,185304.211,A,3313.120,N,19031.377,W,17490.4,244.1,180619,000.0,W*62
$GPGGA,185305.211,3310.683,N,19036.396,W,1,12,1.0,0.0,M,0.0,M,,*79
$GPGSA,A,3,01,02,03,04,05,06,07,08,09,10,11,12,1.0,1.0,1.0*30
$GPRMC,185305.211,A,3310.683,N,19036.396,W,17496.4,244.1,180619,000.0,W*60
$GPGGA,185306.211,3308.246,N,19041.414,W,1,12,1.0,0.0,M,0.0,M,,*73
$GPGSA,A,3,01,02,03,04,05,06,07,08,09,10,11,12,1.0,1.0,1.0*30
$GPRMC,185306.211,A,3308.246,N,19041.414,W,17502.5,244.1,180619,000.0,W*67
$GPGGA,185307.211,3305.809,N,19046.432,W,1,12,1.0,0.0,M,0.0,M,,*7D
$GPGSA,A,3,01,02,03,04,05,06,07,08,09,10,11,12,1.0,1.0,1.0*30
$GPRMC,185307.211,A,3305.809,N,19046.432,W,17508.5,244.1,180619,000.0,W*63
$GPGGA,185308.211,3303.372,N,19051.451,W,1,12,1.0,0.0,M,0.0,M,,*70
$GPGSA,A,3,01,02,03,04,05,06,07,08,09,10,11,12,1.0,1.0,1.0*30
$GPRMC,185308.211,A,3303.372,N,19051.451,W,17514.6,244.1,180619,000.0,W*60
$GPGGA,185309.211,3300.935,N,19056.469,W,1,12,1.0,0.0,M,0.0,M,,*77
$GPGSA,A,3,01,02,03,04,05,06,07,08,09,10,11,12,1.0,1.0,1.0*30
$GPRMC,185309.211,A,3300.935,N,19056.469,W,17520.6,244.1,180619,000.0,W*60
$GPGGA,185310.211,3258.498,N,19101.487,W,1,12,1.0,0.0,M,0.0,M,,*7A
$GPGSA,A,3,01,02,03,04,05,06,07,08,09,10,11,12,1.0,1.0,1.0*30
$GPRMC,185310.211,A,3258.498,N,19101.487,W,17526.7,244.1,180619,000.0,W*6A
$GPGGA,185311.211,3256.061,N,19106.506,W,1,12,1.0,0.0,M,0.0,M,,*78
$GPGSA,A,3,01,02,03,04,05,06,07,08,09,10,11,12,1.0,1.0,1.0*30
$GPRMC,185311.211,A,3256.061,N,19106.506,W,17532.7,244.1,180619,000.0,W*6D
$GPGGA,185312.211,3253.624,N,19111.524,W,1,12,1.0,0.0,M,0.0,M,,*7F
$GPGSA,A,3,01,02,03,04,05,06,07,08,09,10,11,12,1.0,1.0,1.0*30
$GPRMC,185312.211,A,3253.624,N,19111.524,W,17538.7,244.1,180619,000.0,W*60
$GPGGA,185313.211,3251.187,N,19116.542,W,1,12,1.0,0.0,M,0.0,M,,*75
$GPGSA,A,3,01,02,03,04,05,06,07,08,09,10,11,12,1.0,1.0,1.0*30
$GPRMC,185313.211,A,3251.187,N,19116.542,W,17544.7,244.1,180619,000.0,W*61
$GPGGA,185314.211,3248.750,N,19121.561,W,1,12,1.0,0.0,M,0.0,M,,*73
$GPGSA,A,3,01,02,03,04,05,06,07,08,09,10,11,12,1.0,1.0,1.0*30
$GPRMC,185314.211,A,3248.750,N,19121.561,W,17550.8,244.1,180619,000.0,W*6D
$GPGGA,185315.211,3246.313,N,19126.579,W,1,12,1.0,0.0,M,0.0,M,,*71
$GPGSA,A,3,01,02,03,04,05,06,07,08,09,10,11,12,1.0,1.0,1.0*30
$GPRMC,185315.211,A,3246.313,N,19126.579,W,17556.8,244.1,180619,000.0,W*69
$GPGGA,185316.211,3243.876,N,19131.597,W,1,12,1.0,0.0,M,0.0,M,,*79
$GPGSA,A,3,01,02,03,04,05,06,07,08,09,10,11,12,1.0,1.0,1.0*30
$GPRMC,185316.211,A,3243.876,N,19131.597,W,17556.8,244.1,180619,000.0,W*61