$GPGGA,184911.211,4738.147,N,00000.000,E,1,12,1.0,0.0,M,0.0,M,,*62
$GPGSA,A,3,01,02,03,04,05,06,07,08,09,10,11,12,1.0,1.0,1.0*30
$GPRMC,184911.211,A,4738.147,N,00000.000,E,101057.7,077.3,180619,000.0,W*47
$GPGGA,184912.211,4747.018,N,00039.551,E,1,12,1.0,0.0,M,0.0,M,,*69
$GPGSA,A,3,01,02,03,04,05,06,07,08,09,10,11,12,1.0,1.0,1.0*30
$GPRMC,184912.211,A,4747.018,N,00039.551,E,88770.2,075.5,180619,000.0,W*7F
$GPGGA,184913.211,4755.864,N,00113.828,E,1,12,1.0,0.0,M,0.0,M,,*62
$GPGSA,A,3,01,02,03,04,05,06,07,08,09,10,11,12,1.0,1.0,1.0*30
$GPRMC,184913.211,A,4755.864,N,00113.828,E,284031.6,074.7,180619,000.0,W*4F
$GPGGA,184914.211,4825.752,N,00303.252,E,1,12,1.0,0.0,M,0.0,M,,*63
$GPGSA,A,3,01,02,03,04,05,06,07,08,09,10,11,12,1.0,1.0,1.0*30
$GPRMC,184914.211,A,4825.752,N,00303.252,E,49277.2,071.6,180619,000.0,W*7D
$GPGGA,184915.211,4831.869,N,00321.709,E,1,12,1.0,0.0,M,0.0,M,,*6B
$GPGSA,A,3,01,02,03,04,05,06,07,08,09,10,11,12,1.0,1.0,1.0*30
$GPRMC,184915.211,A,4831.869,N,00321.709,E,52007.3,072.8,180619,000.0,W*76
$GPGGA,184916.211,4837.975,N,00341.484,E,1,12,1.0,0.0,M,0.0,M,,*62
$GPGSA,A,3,01,02,03,04,05,06,07,08,09,10,11,12,1.0,1.0,1.0*30
$GPRMC,184916.211,A,4837.975,N,00341.484,E,56082.4,071.7,180619,000.0,W*7D
$GPGGA,184917.211,4844.937,N,00402.578,E,1,12,1.0,0.0,M,0.0,M,,*63
$GPGSA,A,3,01,02,03,04,05,06,07,08,09,10,11,12,1.0,1.0,1.0*30
$GPRMC,184917.211,A,4844.937,N,00402.578,E,61673.6,068.8,180619,000.0,W*75
$GPGGA,184918.211,4853.617,N,00424.990,E,1,12,1.0,0.0,M,0.0,M,,*69
$GPGSA,A,3,01,02,03,04,05,06,07,08,09,10,11,12,1.0,1.0,1.0*30
$GPRMC,184918.211,A,4853.617,N,00424.990,E,424207.7,073.6,180619,000.0,W*48
$GPGGA,184919.211,4941.764,N,00709.785,E,1,12,1.0,0.0,M,0.0,M,,*69
$GPGSA,A,3,01,02,03,04,05,06,07,08,09,10,11,12,1.0,1.0,1.0*30
$GPRMC,184919.211,A,4941.764,N,00709.785,E,49477.2,069.7,180619,000.0,W*79
$GPGGA,184920.211,4948.578,N,00728.242,E,1,12,1.0,0.0,M,0.0,M,,*68
$GPGSA,A,3,01,02,03,04,05,06,07,08,09,10,11,12,1.0,1.0,1.0*30
$GPRMC,184920.211,A,4948.578,N,00728.242,E,475638.3,074.0,180619,000.0,W*40
$GPGGA,184921.211,5042.518,N,01036.768,E,1,12,1.0,0.0,M,0.0,M,,*69
$GPGSA,A,3,01,02,03,04,05,06,07,08,09,10,11,12,1.0,1.0,1.0*30
$GPRMC,184921.211,A,5042.518,N,01036.768,E,28352.2,068.3,180619,000.0,W*7B
$GPGGA,184922.211,5046.689,N,01047.314,E,1,12,1.0,0.0,M,0.0,M,,*6C
$GPGSA,A,3,01,02,03,04,05,06,07,08,09,10,11,12,1.0,1.0,1.0*30
$GPRMC,184922.211,A,5046.689,N,01047.314,E,22860.7,074.8,180619,000.0,W*7D
$GPGGA,184923.211,5049.189,N,01056.543,E,1,12,1.0,0.0,M,0.0,M,,*61
$GPGSA,A,3,01,02,03,04,05,06,07,08,09,10,11,12,1.0,1.0,1.0*30
$GPRMC,184923.211,A,5049.189,N,01056.543,E,41639.8,069.7,180619,000.0,W*7B
$GPGGA,184924.211,5055.013,N,01112.363,E,1,12,1.0,0.0,M,0.0,M,,*6C
$GPGSA,A,3,01,02,03,04,05,06,07,08,09,10,11,12,1.0,1.0,1.0*30
$GPRMC,184924.211,A,5055.013,N,01112.363,E,37851.1,078.1,180619,000.0,W*78
$GPGGA,184925.211,5058.336,N,01128.184,E,1,12,1.0,0.0,M,0.0,M,,*66
$GPGSA,A,3,01,02,03,04,05,06,07,08,09,10,11,12,1.0,1.0,1.0*30
$GPRMC,184925.211,A,5058.336,N,01128.184,E,38952.2,068.1,180619,000.0,W*7D
$GPGGA,184926.211,5104.141,N,01142.686,E,1,12,1.0,0.0,M,0.0,M,,*66
$GPGSA,A,3,01,02,03,04,05,06,07,08,09,10,11,12,1.0,1.0,1.0*30
$GPRMC,184926.211,A,5104.141,N,01142.686,E,24046.5,070.2,180619,000.0,W*71
$GPGGA,184927.211,5107.453,N,01151.914,E,1,12,1.0,0.0,M,0.0,M,,*64
$GPGSA,A,3,01,02,03,04,05,06,07,08,09,10,11,12,1.0,1.0,1.0*30
$GPRMC,184927.211,A,5107.453,N,01151.914,E,19987.0,072.5,180619,000.0,W*79
$GPGGA,184928.211,5109.934,N,01159.824,E,1,12,1.0,0.0,M,0.0,M,,*63
$GPGSA,A,3,01,02,03,04,05,06,07,08,09,10,11,12,1.0,1.0,1.0*30
$GPRMC,184928.211,A,5109.934,N,01159.824,E,41330.5,069.9,180619,000.0,W*76
$GPGGA,184929.211,5115.715,N,01215.645,E,1,12,1.0,0.0,M,0.0,M,,*60
$GPGSA,A,3,01,02,03,04,05,06,07,08,09,10,11,12,1.0,1.0,1.0*30
$GPRMC,184929.211,A,5115.715,N,01215.645,E,23946.1,070.3,180619,000.0,W*7C
$GPGGA,184930.211,5119.013,N,01224.873,E,1,12,1.0,0.0,M,0.0,M,,*6C
$GPGSA,A,3,01,02,03,04,05,06,07,08,09,10,11,12,1.0,1.0,1.0*30
$GPRMC,184930.211,A,5119.013,N,01224.873,E,186536.5,070.6,180619,000.0,W*44
$GPGGA,184931.211,5144.438,N,01337.383,E,1,12,1.0,0.0,M,0.0,M,,*6F
$GPGSA,A,3,01,02,03,04,05,06,07,08,09,10,11,12,1.0,1.0,1.0*30
$GPRMC,184931.211,A,5144.438,N,01337.383,E,26288.1,072.7,180619,000.0,W*79
$GPGGA,184932.211,5147.702,N,01347.930,E,1,12,1.0,0.0,M,0.0,M,,*60
$GPGSA,A,3,01,02,03,04,05,06,07,08,09,10,11,12,1.0,1.0,1.0*30
$GPRMC,184932.211,A,5147.702,N,01347.930,E,22359.9,075.1,180619,000.0,W*76
$GPGGA,184933.211,5150.147,N,01357.158,E,1,12,1.0,0.0,M,0.0,M,,*67
$GPGSA,A,3,01,02,03,04,05,06,07,08,09,10,11,12,1.0,1.0,1.0*30
$GPRMC,184933.211,A,5150.147,N,01357.158,E,25226.0,066.1,180619,000.0,W*74
$GPGGA,184934.211,5154.217,N,01406.387,E,1,12,1.0,0.0,M,0.0,M,,*61
$GPGSA,A,3,01,02,03,04,05,06,07,08,09,10,11,12,1.0,1.0,1.0*30
$GPRMC,184934.211,A,5154.217,N,01406.387,E,31540.7,076.1,180619,000.0,W*76
$GPGGA,184935.211,5157.468,N,01419.570,E,1,12,1.0,0.0,M,0.0,M,,*6D
$GPGSA,A,3,01,02,03,04,05,06,07,08,09,10,11,12,1.0,1.0,1.0*30
$GPRMC,184935.211,A,5157.468,N,01419.570,E,492859.9,072.8,180619,000.0,W*41
$GPGGA,184936.211,5259.300,N,01739.961,E,1,12,1.0,0.0,M,0.0,M,,*67
$GPGSA,A,3,01,02,03,04,05,06,07,08,09,10,11,12,1.0,1.0,1.0*30
$GPRMC,184936.211,A,5259.300,N,01739.961,E,492859.9,072.8,180619,000.0,W*4B