$GPGGA,184911.211,3418.429,N,13500.000,E,1,12,1.0,0.0,M,0.0,M,,*6E
$GPGSA,A,3,01,02,03,04,05,06,07,08,09,10,11,12,1.0,1.0,1.0*30
$GPRMC,184911.211,A,3418.429,N,13500.000,E,32862.7,261.6,180619,000.0,W*74
$GPGGA,184912.211,3416.835,N,13449.128,E,1,12,1.0,0.0,M,0.0,M,,*65
$GPGSA,A,3,01,02,03,04,05,06,07,08,09,10,11,12,1.0,1.0,1.0*30
$GPRMC,184912.211,A,3416.835,N,13449.128,E,32872.8,261.6,180619,000.0,W*71
$GPGGA,184913.211,3415.241,N,13438.256,E,1,12,1.0,0.0,M,0.0,M,,*62
$GPGSA,A,3,01,02,03,04,05,06,07,08,09,10,11,12,1.0,1.0,1.0*30
$GPRMC,184913.211,A,3415.241,N,13438.256,E,32882.8,261.6,180619,000.0,W*79
$GPGGA,184914.211,3413.648,N,13427.384,E,1,12,1.0,0.0,M,0.0,M,,*6E
$GPGSA,A,3,01,02,03,04,05,06,07,08,09,10,11,12,1.0,1.0,1.0*30
$GPRMC,184914.211,A,3413.648,N,13427.384,E,32892.9,261.6,180619,000.0,W*75
$GPGGA,184915.211,3412.054,N,13416.512,E,1,12,1.0,0.0,M,0.0,M,,*6E
$GPGSA,A,3,01,02,03,04,05,06,07,08,09,10,11,12,1.0,1.0,1.0*30
$GPRMC,184915.211,A,3412.054,N,13416.512,E,32902.9,261.6,180619,000.0,W*7D
$GPGGA,184916.211,3410.460,N,13405.639,E,1,12,1.0,0.0,M,0.0,M,,*64
$GPGSA,A,3,01,02,03,04,05,06,07,08,09,10,11,12,1.0,1.0,1.0*30
$GPRMC,184916.211,A,3410.460,N,13405.639,E,32913.0,261.6,180619,000.0,W*7E
$GPGGA,184917.211,3408.866,N,13354.767,E,1,12,1.0,0.0,M,0.0,M,,*6F
$GPGSA,A,3,01,02,03,04,05,06,07,08,09,10,11,12,1.0,1.0,1.0*30
$GPRMC,184917.211,A,3408.866,N,13354.767,E,32923.0,261.6,180619,000.0,W*76
$GPGGA,184918.211,3407.273,N,13343.895,E,1,12,1.0,0.0,M,0.0,M,,*65
$GPGSA,A,3,01,02,03,04,05,06,07,08,09,10,11,12,1.0,1.0,1.0*30
$GPRMC,184918.211,A,3407.273,N,13343.895,E,32933.0,261.6,180619,000.0,W*7D
$GPGGA,184919.211,3405.679,N,13333.023,E,1,12,1.0,0.0,M,0.0,M,,*6A
$GPGSA,A,3,01,02,03,04,05,06,07,08,09,10,11,12,1.0,1.0,1.0*30
$GPRMC,184919.211,A,3405.679,N,13333.023,E,32943.1,261.6,180619,000.0,W*74
$GPGGA,184920.211,3404.085,N,13322.151,E,1,12,1.0,0.0,M,0.0,M,,*60
$GPGSA,A,3,01,02,03,04,05,06,07,08,09,10,11,12,1.0,1.0,1.0*30
$GPRMC,184920.211,A,3404.085,N,13322.151,E,32953.1,261.6,180619,000.0,W*7F
$GPGGA,184921.211,3402.492,N,13311.279,E,1,12,1.0,0.0,M,0.0,M,,*6C
$GPGSA,A,3,01,02,03,04,05,06,07,08,09,10,11,12,1.0,1.0,1.0*30
$GPRMC,184921.211,A,3402.492,N,13311.279,E,32963.1,261.6,180619,000.0,W*70
$GPGGA,184922.211,3400.898,N,13300.407,E,1,12,1.0,0.0,M,0.0,M,,*64
$GPGSA,A,3,01,02,03,04,05,06,07,08,09,10,11,12,1.0,1.0,1.0*30
$GPRMC,184922.211,A,3400.898,N,13300.407,E,32973.1,261.6,180619,000.0,W*79
$GPGGA,184923.211,3359.304,N,13249.535,E,1,12,1.0,0.0,M,0.0,M,,*6C
$GPGSA,A,3,01,02,03,04,05,06,07,08,09,10,11,12,1.0,1.0,1.0*30
$GPRMC,184923.211,A,3359.304,N,13249.535,E,32983.1,261.6,180619,000.0,W*7E
$GPGGA,184924.211,3357.710,N,13238.663,E,1,12,1.0,0.0,M,0.0,M,,*62
$GPGSA,A,3,01,02,03,04,05,06,07,08,09,10,11,12,1.0,1.0,1.0*30
$GPRMC,184924.211,A,3357.710,N,13238.663,E,32993.1,261.6,180619,000.0,W*71
$GPGGA,184925.211,3356.117,N,13227.791,E,1,12,1.0,0.0,M,0.0,M,,*61
$GPGSA,A,3,01,02,03,04,05,06,07,08,09,10,11,12,1.0,1.0,1.0*30
$GPRMC,184925.211,A,3356.117,N,13227.791,E,33003.0,261.6,180619,000.0,W*72
$GPGGA,184926.211,3354.523,N,13216.918,E,1,12,1.0,0.0,M,0.0,M,,*6E
$GPGSA,A,3,01,02,03,04,05,06,07,08,09,10,11,12,1.0,1.0,1.0*30
$GPRMC,184926.211,A,3354.523,N,13216.918,E,33013.0,261.6,180619,000.0,W*7C
$GPGGA,184927.211,3352.929,N,13206.046,E,1,12,1.0,0.0,M,0.0,M,,*6C
$GPGSA,A,3,01,02,03,04,05,06,07,08,09,10,11,12,1.0,1.0,1.0*30
$GPRMC,184927.211,A,3352.929,N,13206.046,E,33023.0,261.6,180619,000.0,W*7D
$GPGGA,184928.211,3351.336,N,13155.174,E,1,12,1.0,0.0,M,0.0,M,,*61
$GPGSA,A,3,01,02,03,04,05,06,07,08,09,10,11,12,1.0,1.0,1.0*30
$GPRMC,184928.211,A,3351.336,N,13155.174,E,33032.9,261.6,180619,000.0,W*79
$GPGGA,184929.211,3349.742,N,13144.302,E,1,12,1.0,0.0,M,0.0,M,,*6D
$GPGSA,A,3,01,02,03,04,05,06,07,08,09,10,11,12,1.0,1.0,1.0*30
$GPRMC,184929.211,A,3349.742,N,13144.302,E,33042.9,261.6,180619,000.0,W*72
$GPGGA,184930.211,3348.148,N,13133.430,E,1,12,1.0,0.0,M,0.0,M,,*6E
$GPGSA,A,3,01,02,03,04,05,06,07,08,09,10,11,12,1.0,1.0,1.0*30
$GPRMC,184930.211,A,3348.148,N,13133.430,E,33052.9,261.6,180619,000.0,W*70
$GPGGA,184931.211,3346.555,N,13122.558,E,1,12,1.0,0.0,M,0.0,M,,*66
$GPGSA,A,3,01,02,03,04,05,06,07,08,09,10,11,12,1.0,1.0,1.0*30
$GPRMC,184931.211,A,3346.555,N,13122.558,E,33062.8,261.6,180619,000.0,W*7A
$GPGGA,184932.211,3344.961,N,13111.686,E,1,12,1.0,0.0,M,0.0,M,,*6C
$GPGSA,A,3,01,02,03,04,05,06,07,08,09,10,11,12,1.0,1.0,1.0*30
$GPRMC,184932.211,A,3344.961,N,13111.686,E,33072.7,261.6,180619,000.0,W*7E
$GPGGA,184933.211,3343.367,N,13100.814,E,1,12,1.0,0.0,M,0.0,M,,*63
$GPGSA,A,3,01,02,03,04,05,06,07,08,09,10,11,12,1.0,1.0,1.0*30
$GPRMC,184933.211,A,3343.367,N,13100.814,E,33082.7,261.6,180619,000.0,W*7E
$GPGGA,184934.211,3341.773,N,13049.942,E,1,12,1.0,0.0,M,0.0,M,,*69
$GPGSA,A,3,01,02,03,04,05,06,07,08,09,10,11,12,1.0,1.0,1.0*30
$GPRMC,184934.211,A,3341.773,N,13049.942,E,33092.6,261.6,180619,000.0,W*74
$GPGGA,184935.211,3340.180,N,13039.069,E,1,12,1.0,0.0,M,0.0,M,,*64
$GPGSA,A,3,01,02,03,04,05,06,07,08,09,10,11,12,1.0,1.0,1.0*30
$GPRMC,184935.211,A,3340.180,N,13039.069,E,33102.5,261.6,180619,000.0,W*72
$GPGGA,184936.211,3338.586,N,13028.197,E,1,12,1.0,0.0,M,0.0,M,,*6A
$GPGSA,A,3,01,02,03,04,05,06,07,08,09,10,11,12,1.0,1.0,1.0*30
$GPRMC,184936.211,A,3338.586,N,13028.197,E,33112.4,261.6,180619,000.0,W*7C
$GPGGA,184937.211,3336.992,N,13017.325,E,1,12,1.0,0.0,M,0.0,M,,*6B
$GPGSA,A,3,01,02,03,04,05,06,07,08,09,10,11,12,1.0,1.0,1.0*30
$GPRMC,184937.211,A,3336.992,N,13017.325,E,33122.3,261.6,180619,000.0,W*79
$GPGGA,184938.211,3335.399,N,13006.453,E,1,12,1.0,0.0,M,0.0,M,,*60
$GPGSA,A,3,01,02,03,04,05,06,07,08,09,10,11,12,1.0,1.0,1.0*30
$GPRMC,184938.211,A,3335.399,N,13006.453,E,33132.2,261.6,180619,000.0,W*72
$GPGGA,184939.211,3333.805,N,12955.581,E,1,12,1.0,0.0,M,0.0,M,,*69
$GPGSA,A,3,01,02,03,04,05,06,07,08,09,10,11,12,1.0,1.0,1.0*30
$GPRMC,184939.211,A,3333.805,N,12955.581,E,33142.1,261.6,180619,000.0,W*7F
$GPGGA,184940.211,3332.211,N,12944.709,E,1,12,1.0,0.0,M,0.0,M,,*6B
$GPGSA,A,3,01,02,03,04,05,06,07,08,09,10,11,12,1.0,1.0,1.0*30
$GPRMC,184940.211,A,3332.211,N,12944.709,E,33152.0,261.6,180619,000.0,W*7D
$GPGGA,184941.211,3330.618,N,12933.837,E,1,12,1.0,0.0,M,0.0,M,,*67
$GPGSA,A,3,01,02,03,04,05,06,07,08,09,10,11,12,1.0,1.0,1.0*30
$GPRMC,184941.211,A,3330.618,N,12933.837,E,33161.8,261.6,180619,000.0,W*79
$GPGGA,184942.211,3329.024,N,12922.965,E,1,12,1.0,0.0,M,0.0,M,,*63
$GPGSA,A,3,01,02,03,04,05,06,07,08,09,10,11,12,1.0,1.0,1.0*30
$GPRMC,184942.211,A,3329.024,N,12922.965,E,33171.7,261.6,180619,000.0,W*73
$GPGGA,184943.211,3327.430,N,12912.093,E,1,12,1.0,0.0,M,0.0,M,,*6E
$GPGSA,A,3,01,02,03,04,05,06,07,08,09,10,11,12,1.0,1.0,1.0*30
$GPRMC,184943.211,A,3327.430,N,12912.093,E,33181.6,261.6,180619,000.0,W*70
$GPGGA,184944.211,3325.836,N,12901.220,E,1,12,1.0,0.0,M,0.0,M,,*69
$GPGSA,A,3,01,02,03,04,05,06,07,08,09,10,11,12,1.0,1.0,1.0*30
$GPRMC,184944.211,A,3325.836,N,12901.220,E,33191.4,261.6,180619,000.0,W*74
$GPGGA,184945.211,3324.243,N,12850.348,E,1,12,1.0,0.0,M,0.0,M,,*6B
$GPGSA,A,3,01,02,03,04,05,06,07,08,09,10,11,12,1.0,1.0,1.0*30
$GPRMC,184945.211,A,3324.243,N,12850.348,E,33201.2,261.6,180619,000.0,W*7A
$GPGGA,184946.211,3322.649,N,12839.476,E,1,12,1.0,0.0,M,0.0,M,,*65
$GPGSA,A,3,01,02,03,04,05,06,07,08,09,10,11,12,1.0,1.0,1.0*30
$GPRMC,184946.211,A,3322.649,N,12839.476,E,33211.1,261.6,180619,000.0,W*76
$GPGGA,184947.211,3321.055,N,12828.604,E,1,12,1.0,0.0,M,0.0,M,,*6B
$GPGSA,A,3,01,02,03,04,05,06,07,08,09,10,11,12,1.0,1.0,1.0*30
$GPRMC,184947.211,A,3321.055,N,12828.604,E,33220.9,261.6,180619,000.0,W*72
$GPGGA,184948.211,3319.462,N,12817.732,E,1,12,1.0,0.0,M,0.0,M,,*67
$GPGSA,A,3,01,02,03,04,05,06,07,08,09,10,11,12,1.0,1.0,1.0*30
$GPRMC,184948.211,A,3319.462,N,12817.732,E,33230.7,261.6,180619,000.0,W*71
$GPGGA,184949.211,3317.868,N,12806.860,E,1,12,1.0,0.0,M,0.0,M,,*66
$GPGSA,A,3,01,02,03,04,05,06,07,08,09,10,11,12,1.0,1.0,1.0*30
$GPRMC,184949.211,A,3317.868,N,12806.860,E,33240.6,261.6,180619,000.0,W*76
$GPGGA,184950.211,3316.274,N,12755.988,E,1,12,1.0,0.0,M,0.0,M,,*66
$GPGSA,A,3,01,02,03,04,05,06,07,08,09,10,11,12,1.0,1.0,1.0*30
$GPRMC,184950.211,A,3316.274,N,12755.988,E,33250.4,261.6,180619,000.0,W*75
$GPGGA,184951.211,3314.680,N,12745.116,E,1,12,1.0,0.0,M,0.0,M,,*64
$GPGSA,A,3,01,02,03,04,05,06,07,08,09,10,11,12,1.0,1.0,1.0*30
$GPRMC,184951.211,A,3314.680,N,12745.116,E,33260.2,261.6,180619,000.0,W*72
$GPGGA,184952.211,3313.087,N,12734.244,E,1,12,1.0,0.0,M,0.0,M,,*63
$GPGSA,A,3,01,02,03,04,05,06,07,08,09,10,11,12,1.0,1.0,1.0*30
$GPRMC,184952.211,A,3313.087,N,12734.244,E,33270.0,261.6,180619,000.0,W*76
$GPGGA,184953.211,3311.493,N,12723.372,E,1,12,1.0,0.0,M,0.0,M,,*63
$GPGSA,A,3,01,02,03,04,05,06,07,08,09,10,11,12,1.0,1.0,1.0*30
$GPRMC,184953.211,A,3311.493,N,12723.372,E,33279.8,261.6,180619,000.0,W*77
$GPGGA,184954.211,3309.899,N,12712.499,E,1,12,1.0,0.0,M,0.0,M,,*6B
$GPGSA,A,3,01,02,03,04,05,06,07,08,09,10,11,12,1.0,1.0,1.0*30
$GPRMC,184954.211,A,3309.899,N,12712.499,E,33289.6,261.6,180619,000.0,W*7E
$GPGGA,184955.211,3308.306,N,12701.627,E,1,12,1.0,0.0,M,0.0,M,,*63
$GPGSA,A,3,01,02,03,04,05,06,07,08,09,10,11,12,1.0,1.0,1.0*30
$GPRMC,184955.211,A,3308.306,N,12701.627,E,33299.3,261.6,180619,000.0,W*72
$GPGGA,184956.211,3306.712,N,12650.755,E,1,12,1.0,0.0,M,0.0,M,,*6E
$GPGSA,A,3,01,02,03,04,05,06,07,08,09,10,11,12,1.0,1.0,1.0*30
$GPRMC,184956.211,A,3306.712,N,12650.755,E,33309.1,261.6,180619,000.0,W*75
$GPGGA,184957.211,3305.118,N,12639.883,E,1,12,1.0,0.0,M,0.0,M,,*6B
$GPGSA,A,3,01,02,03,04,05,06,07,08,09,10,11,12,1.0,1.0,1.0*30
$GPRMC,184957.211,A,3305.118,N,12639.883,E,33318.9,261.6,180619,000.0,W*78
$GPGGA,184958.211,3303.525,N,12629.011,E,1,12,1.0,0.0,M,0.0,M,,*6A
$GPGSA,A,3,01,02,03,04,05,06,07,08,09,10,11,12,1.0,1.0,1.0*30
$GPRMC,184958.211,A,3303.525,N,12629.011,E,33328.6,261.6,180619,000.0,W*75
$GPGGA,184959.211,3301.931,N,12618.139,E,1,12,1.0,0.0,M,0.0,M,,*69
$GPGSA,A,3,01,02,03,04,05,06,07,08,09,10,11,12,1.0,1.0,1.0*30
$GPRMC,184959.211,A,3301.931,N,12618.139,E,33338.4,261.6,180619,000.0,W*75
$GPGGA,185000.211,3300.337,N,12607.267,E,1,12,1.0,0.0,M,0.0,M,,*66
$GPGSA,A,3,01,02,03,04,05,06,07,08,09,10,11,12,1.0,1.0,1.0*30
$GPRMC,185000.211,A,3300.337,N,12607.267,E,33348.1,261.6,180619,000.0,W*78
$GPGGA,185001.211,3258.743,N,12556.395,E,1,12,1.0,0.0,M,0.0,M,,*67
$GPGSA,A,3,01,02,03,04,05,06,07,08,09,10,11,12,1.0,1.0,1.0*30
$GPRMC,185001.211,A,3258.743,N,12556.395,E,33357.8,261.6,180619,000.0,W*7E
$GPGGA,185002.211,3257.150,N,12545.523,E,1,12,1.0,0.0,M,0.0,M,,*66
$GPGSA,A,3,01,02,03,04,05,06,07,08,09,10,11,12,1.0,1.0,1.0*30
$GPRMC,185002.211,A,3257.150,N,12545.523,E,33367.6,261.6,180619,000.0,W*72
$GPGGA,185003.211,3255.556,N,12534.650,E,1,12,1.0,0.0,M,0.0,M,,*66
$GPGSA,A,3,01,02,03,04,05,06,07,08,09,10,11,12,1.0,1.0,1.0*30
$GPRMC,185003.211,A,3255.556,N,12534.650,E,33377.3,261.6,180619,000.0,W*76
$GPGGA,185004.211,3253.962,N,12523.778,E,1,12,1.0,0.0,M,0.0,M,,*61
$GPGSA,A,3,01,02,03,04,05,06,07,08,09,10,11,12,1.0,1.0,1.0*30
$GPRMC,185004.211,A,3253.962,N,12523.778,E,33387.0,261.6,180619,000.0,W*7D
$GPGGA,185005.211,3252.369,N,12512.906,E,1,12,1.0,0.0,M,0.0,M,,*65
$GPGSA,A,3,01,02,03,04,05,06,07,08,09,10,11,12,1.0,1.0,1.0*30
$GPRMC,185005.211,A,3252.369,N,12512.906,E,33396.7,261.6,180619,000.0,W*7E
$GPGGA,185006.211,3250.775,N,12502.034,E,1,12,1.0,0.0,M,0.0,M,,*64
$GPGSA,A,3,01,02,03,04,05,06,07,08,09,10,11,12,1.0,1.0,1.0*30
$GPRMC,185006.211,A,3250.775,N,12502.034,E,33406.4,261.6,180619,000.0,W*72
$GPGGA,185007.211,3249.181,N,12451.162,E,1,12,1.0,0.0,M,0.0,M,,*65
$GPGSA,A,3,01,02,03,04,05,06,07,08,09,10,11,12,1.0,1.0,1.0*30
$GPRMC,185007.211,A,3249.181,N,12451.162,E,33416.1,261.6,180619,000.0,W*77
$GPGGA,185008.211,3247.588,N,12440.290,E,1,12,1.0,0.0,M,0.0,M,,*67
$GPGSA,A,3,01,02,03,04,05,06,07,08,09,10,11,12,1.0,1.0,1.0*30
$GPRMC,185008.211,A,3247.588,N,12440.290,E,33425.8,261.6,180619,000.0,W*7C
$GPGGA,185009.211,3245.994,N,12429.418,E,1,12,1.0,0.0,M,0.0,M,,*6C
$GPGSA,A,3,01,02,03,04,05,06,07,08,09,10,11,12,1.0,1.0,1.0*30
$GPRMC,185009.211,A,3245.994,N,12429.418,E,33435.5,261.6,180619,000.0,W*7B
$GPGGA,185010.211,3244.400,N,12418.546,E,1,12,1.0,0.0,M,0.0,M,,*6D
$GPGSA,A,3,01,02,03,04,05,06,07,08,09,10,11,12,1.0,1.0,1.0*30
$GPRMC,185010.211,A,3244.400,N,12418.546,E,33445.2,261.6,180619,000.0,W*7A
$GPGGA,185011.211,3242.806,N,12407.674,E,1,12,1.0,0.0,M,0.0,M,,*6C
$GPGSA,A,3,01,02,03,04,05,06,07,08,09,10,11,12,1.0,1.0,1.0*30
$GPRMC,185011.211,A,3242.806,N,12407.674,E,33454.8,261.6,180619,000.0,W*71
$GPGGA,185012.211,3241.213,N,12356.801,E,1,12,1.0,0.0,M,0.0,M,,*6D
$GPGSA,A,3,01,02,03,04,05,06,07,08,09,10,11,12,1.0,1.0,1.0*30
$GPRMC,185012.211,A,3241.213,N,12356.801,E,33464.5,261.6,180619,000.0,W*7E
$GPGGA,185013.211,3239.619,N,12345.929,E,1,12,1.0,0.0,M,0.0,M,,*64
$GPGSA,A,3,01,02,03,04,05,06,07,08,09,10,11,12,1.0,1.0,1.0*30
$GPRMC,185013.211,A,3239.619,N,12345.929,E,33474.1,261.6,180619,000.0,W*72
$GPGGA,185014.211,3238.025,N,12335.057,E,1,12,1.0,0.0,M,0.0,M,,*6C
$GPGSA,A,3,01,02,03,04,05,06,07,08,09,10,11,12,1.0,1.0,1.0*30
$GPRMC,185014.211,A,3238.025,N,12335.057,E,33483.8,261.6,180619,000.0,W*7B
$GPGGA,185015.211,3236.432,N,12324.185,E,1,12,1.0,0.0,M,0.0,M,,*6F
$GPGSA,A,3,01,02,03,04,05,06,07,08,09,10,11,12,1.0,1.0,1.0*30
$GPRMC,185015.211,A,3236.432,N,12324.185,E,33493.4,261.6,180619,000.0,W*75
$GPGGA,185016.211,3234.838,N,12313.313,E,1,12,1.0,0.0,M,0.0,M,,*61
$GPGSA,A,3,01,02,03,04,05,06,07,08,09,10,11,12,1.0,1.0,1.0*30
$GPRMC,185016.211,A,3234.838,N,12313.313,E,33503.1,261.6,180619,000.0,W*76
$GPGGA,185017.211,3233.244,N,12302.441,E,1,12,1.0,0.0,M,0.0,M,,*66
$GPGSA,A,3,01,02,03,04,05,06,07,08,09,10,11,12,1.0,1.0,1.0*30
$GPRMC,185017.211,A,3233.244,N,12302.441,E,33512.7,261.6,180619,000.0,W*77
$GPGGA,185018.211,3231.651,N,12251.569,E,1,12,1.0,0.0,M,0.0,M,,*67
$GPGSA,A,3,01,02,03,04,05,06,07,08,09,10,11,12,1.0,1.0,1.0*30
$GPRMC,185018.211,A,3231.651,N,12251.569,E,33522.3,261.6,180619,000.0,W*71
$GPGGA,185019.211,3230.057,N,12240.697,E,1,12,1.0,0.0,M,0.0,M,,*65
$GPGSA,A,3,01,02,03,04,05,06,07,08,09,10,11,12,1.0,1.0,1.0*30
$GPRMC,185019.211,A,3230.057,N,12240.697,E,33531.9,261.6,180619,000.0,W*7B
$GPGGA,185020.211,3228.463,N,12229.825,E,1,12,1.0,0.0,M,0.0,M,,*6D
$GPGSA,A,3,01,02,03,04,05,06,07,08,09,10,11,12,1.0,1.0,1.0*30
$GPRMC,185020.211,A,3228.463,N,12229.825,E,33541.5,261.6,180619,000.0,W*78
$GPGGA,185021.211,3226.869,N,12218.953,E,1,12,1.0,0.0,M,0.0,M,,*66
$GPGSA,A,3,01,02,03,04,05,06,07,08,09,10,11,12,1.0,1.0,1.0*30
$GPRMC,185021.211,A,3226.869,N,12218.953,E,33551.1,261.6,180619,000.0,W*76
$GPGGA,185022.211,3225.276,N,12208.080,E,1,12,1.0,0.0,M,0.0,M,,*64
$GPGSA,A,3,01,02,03,04,05,06,07,08,09,10,11,12,1.0,1.0,1.0*30
$GPRMC,185022.211,A,3225.276,N,12208.080,E,33560.7,261.6,180619,000.0,W*70
$GPGGA,185023.211,3223.682,N,12157.208,E,1,12,1.0,0.0,M,0.0,M,,*67
$GPGSA,A,3,01,02,03,04,05,06,07,08,09,10,11,12,1.0,1.0,1.0*30
$GPRMC,185023.211,A,3223.682,N,12157.208,E,33570.3,261.6,180619,000.0,W*76
$GPGGA,185024.211,3222.088,N,12146.336,E,1,12,1.0,0.0,M,0.0,M,,*61
$GPGSA,A,3,01,02,03,04,05,06,07,08,09,10,11,12,1.0,1.0,1.0*30
$GPRMC,185024.211,A,3222.088,N,12146.336,E,33579.9,261.6,180619,000.0,W*73
$GPGGA,185025.211,3220.495,N,12135.464,E,1,12,1.0,0.0,M,0.0,M,,*6E
$GPGSA,A,3,01,02,03,04,05,06,07,08,09,10,11,12,1.0,1.0,1.0*30
$GPRMC,185025.211,A,3220.495,N,12135.464,E,33589.4,261.6,180619,000.0,W*7E
$GPGGA,185026.211,3218.901,N,12124.592,E,1,12,1.0,0.0,M,0.0,M,,*6E
$GPGSA,A,3,01,02,03,04,05,06,07,08,09,10,11,12,1.0,1.0,1.0*30
$GPRMC,185026.211,A,3218.901,N,12124.592,E,33599.0,261.6,180619,000.0,W*7B
$GPGGA,185027.211,3217.307,N,12113.720,E,1,12,1.0,0.0,M,0.0,M,,*63
$GPGSA,A,3,01,02,03,04,05,06,07,08,09,10,11,12,1.0,1.0,1.0*30
$GPRMC,185027.211,A,3217.307,N,12113.720,E,33608.6,261.6,180619,000.0,W*7B
$GPGGA,185028.211,3215.713,N,12102.848,E,1,12,1.0,0.0,M,0.0,M,,*6E
$GPGSA,A,3,01,02,03,04,05,06,07,08,09,10,11,12,1.0,1.0,1.0*30
$GPRMC,185028.211,A,3215.713,N,12102.848,E,33618.1,261.6,180619,000.0,W*70
$GPGGA,185029.211,3214.120,N,12051.976,E,1,12,1.0,0.0,M,0.0,M,,*63
$GPGSA,A,3,01,02,03,04,05,06,07,08,09,10,11,12,1.0,1.0,1.0*30
$GPRMC,185029.211,A,3214.120,N,12051.976,E,33627.7,261.6,180619,000.0,W*77
$GPGGA,185030.211,3212.526,N,12041.104,E,1,12,1.0,0.0,M,0.0,M,,*63
$GPGSA,A,3,01,02,03,04,05,06,07,08,09,10,11,12,1.0,1.0,1.0*30
$GPRMC,185030.211,A,3212.526,N,12041.104,E,33637.2,261.6,180619,000.0,W*73
$GPGGA,185031.211,3210.932,N,12030.231,E,1,12,1.0,0.0,M,0.0,M,,*6A
$GPGSA,A,3,01,02,03,04,05,06,07,08,09,10,11,12,1.0,1.0,1.0*30
$GPRMC,185031.211,A,3210.932,N,12030.231,E,33646.7,261.6,180619,000.0,W*79
$GPGGA,185032.211,3209.339,N,12019.359,E,1,12,1.0,0.0,M,0.0,M,,*64
$GPGSA,A,3,01,02,03,04,05,06,07,08,09,10,11,12,1.0,1.0,1.0*30
$GPRMC,185032.211,A,3209.339,N,12019.359,E,33656.2,261.6,180619,000.0,W*73
$GPGGA,185033.211,3207.745,N,12008.487,E,1,12,1.0,0.0,M,0.0,M,,*60
$GPGSA,A,3,01,02,03,04,05,06,07,08,09,10,11,12,1.0,1.0,1.0*30
$GPRMC,185033.211,A,3207.745,N,12008.487,E,33665.8,261.6,180619,000.0,W*7D
$GPGGA,185034.211,3206.151,N,11957.615,E,1,12,1.0,0.0,M,0.0,M,,*6C
$GPGSA,A,3,01,02,03,04,05,06,07,08,09,10,11,12,1.0,1.0,1.0*30
$GPRMC,185034.211,A,3206.151,N,11957.615,E,33675.3,261.6,180619,000.0,W*7B
$GPGGA,185035.211,3204.558,N,11946.743,E,1,12,1.0,0.0,M,0.0,M,,*60
$GPGSA,A,3,01,02,03,04,05,06,07,08,09,10,11,12,1.0,1.0,1.0*30
$GPRMC,185035.211,A,3204.558,N,11946.743,E,33684.8,261.6,180619,000.0,W*72
$GPGGA,185036.211,3202.964,N,11935.871,E,1,12,1.0,0.0,M,0.0,M,,*6C
$GPGSA,A,3,01,02,03,04,05,06,07,08,09,10,11,12,1.0,1.0,1.0*30
$GPRMC,185036.211,A,3202.964,N,11935.871,E,33694.3,261.6,180619,000.0,W*74
$GPGGA,185037.211,3201.370,N,11924.999,E,1,12,1.0,0.0,M,0.0,M,,*66
$GPGSA,A,3,01,02,03,04,05,06,07,08,09,10,11,12,1.0,1.0,1.0*30
$GPRMC,185037.211,A,3201.370,N,11924.999,E,33703.7,261.6,180619,000.0,W*75
$GPGGA,185038.211,3159.776,N,11914.127,E,1,12,1.0,0.0,M,0.0,M,,*6B
$GPGSA,A,3,01,02,03,04,05,06,07,08,09,10,11,12,1.0,1.0,1.0*30
$GPRMC,185038.211,A,3159.776,N,11914.127,E,33713.2,261.6,180619,000.0,W*7C
$GPGGA,185039.211,3158.183,N,11903.255,E,1,12,1.0,0.0,M,0.0,M,,*67
$GPGSA,A,3,01,02,03,04,05,06,07,08,09,10,11,12,1.0,1.0,1.0*30
$GPRMC,185039.211,A,3158.183,N,11903.255,E,33722.7,261.6,180619,000.0,W*77
$GPGGA,185040.211,3156.589,N,11852.382,E,1,12,1.0,0.0,M,0.0,M,,*67
$GPGSA,A,3,01,02,03,04,05,06,07,08,09,10,11,12,1.0,1.0,1.0*30
$GPRMC,185040.211,A,3156.589,N,11852.382,E,33732.2,261.6,180619,000.0,W*73
$GPGGA,185041.211,3154.995,N,11841.510,E,1,12,1.0,0.0,M,0.0,M,,*6A
$GPGSA,A,3,01,02,03,04,05,06,07,08,09,10,11,12,1.0,1.0,1.0*30
$GPRMC,185041.211,A,3154.995,N,11841.510,E,33741.6,261.6,180619,000.0,W*7E
$GPGGA,185042.211,3153.402,N,11830.638,E,1,12,1.0,0.0,M,0.0,M,,*62
$GPGSA,A,3,01,02,03,04,05,06,07,08,09,10,11,12,1.0,1.0,1.0*30
$GPRMC,185042.211,A,3153.402,N,11830.638,E,33751.1,261.6,180619,000.0,W*70
$GPGGA,185043.211,3151.808,N,11819.766,E,1,12,1.0,0.0,M,0.0,M,,*66
$GPGSA,A,3,01,02,03,04,05,06,07,08,09,10,11,12,1.0,1.0,1.0*30
$GPRMC,185043.211,A,3151.808,N,11819.766,E,33760.5,261.6,180619,000.0,W*72
$GPGGA,185044.211,3150.214,N,11808.894,E,1,12,1.0,0.0,M,0.0,M,,*65
$GPGSA,A,3,01,02,03,04,05,06,07,08,09,10,11,12,1.0,1.0,1.0*30
$GPRMC,185044.211,A,3150.214,N,11808.894,E,33770.0,261.6,180619,000.0,W*75
$GPGGA,185045.211,3148.621,N,11758.022,E,1,12,1.0,0.0,M,0.0,M,,*60
$GPGSA,A,3,01,02,03,04,05,06,07,08,09,10,11,12,1.0,1.0,1.0*30
$GPRMC,185045.211,A,3148.621,N,11758.022,E,33779.4,261.6,180619,000.0,W*7D
$GPGGA,185046.211,3147.027,N,11747.150,E,1,12,1.0,0.0,M,0.0,M,,*66
$GPGSA,A,3,01,02,03,04,05,06,07,08,09,10,11,12,1.0,1.0,1.0*30
$GPRMC,185046.211,A,3147.027,N,11747.150,E,33788.8,261.6,180619,000.0,W*79
$GPGGA,185047.211,3145.433,N,11736.278,E,1,12,1.0,0.0,M,0.0,M,,*6B
$GPGSA,A,3,01,02,03,04,05,06,07,08,09,10,11,12,1.0,1.0,1.0*30
$GPRMC,185047.211,A,3145.433,N,11736.278,E,33798.2,261.6,180619,000.0,W*7F
$GPGGA,185048.211,3143.839,N,11725.406,E,1,12,1.0,0.0,M,0.0,M,,*69
$GPGSA,A,3,01,02,03,04,05,06,07,08,09,10,11,12,1.0,1.0,1.0*30
$GPRMC,185048.211,A,3143.839,N,11725.406,E,33807.6,261.6,180619,000.0,W*70
$GPGGA,185049.211,3142.246,N,11714.534,E,1,12,1.0,0.0,M,0.0,M,,*69
$GPGSA,A,3,01,02,03,04,05,06,07,08,09,10,11,12,1.0,1.0,1.0*30
$GPRMC,185049.211,A,3142.246,N,11714.534,E,33817.0,261.6,180619,000.0,W*77
$GPGGA,185050.211,3140.652,N,11703.661,E,1,12,1.0,0.0,M,0.0,M,,*67
$GPGSA,A,3,01,02,03,04,05,06,07,08,09,10,11,12,1.0,1.0,1.0*30
$GPRMC,185050.211,A,3140.652,N,11703.661,E,33826.4,261.6,180619,000.0,W*7F
$GPGGA,185051.211,3139.058,N,11652.789,E,1,12,1.0,0.0,M,0.0,M,,*66
$GPGSA,A,3,01,02,03,04,05,06,07,08,09,10,11,12,1.0,1.0,1.0*30
$GPRMC,185051.211,A,3139.058,N,11652.789,E,33835.8,261.6,180619,000.0,W*70
$GPGGA,185052.211,3137.465,N,11641.917,E,1,12,1.0,0.0,M,0.0,M,,*6A
$GPGSA,A,3,01,02,03,04,05,06,07,08,09,10,11,12,1.0,1.0,1.0*30
$GPRMC,185052.211,A,3137.465,N,11641.917,E,33845.2,261.6,180619,000.0,W*71
$GPGGA,185053.211,3135.871,N,11631.045,E,1,12,1.0,0.0,M,0.0,M,,*69
$GPGSA,A,3,01,02,03,04,05,06,07,08,09,10,11,12,1.0,1.0,1.0*30
$GPRMC,185053.211,A,3135.871,N,11631.045,E,33854.6,261.6,180619,000.0,W*76
$GPGGA,185054.211,3134.277,N,11620.173,E,1,12,1.0,0.0,M,0.0,M,,*67
$GPGSA,A,3,01,02,03,04,05,06,07,08,09,10,11,12,1.0,1.0,1.0*30
$GPRMC,185054.211,A,3134.277,N,11620.173,E,33864.0,261.6,180619,000.0,W*7D
$GPGGA,185055.211,3132.683,N,11609.301,E,1,12,1.0,0.0,M,0.0,M,,*63
$GPGSA,A,3,01,02,03,04,05,06,07,08,09,10,11,12,1.0,1.0,1.0*30
$GPRMC,185055.211,A,3132.683,N,11609.301,E,33873.3,261.6,180619,000.0,W*7C
$GPGGA,185056.211,3131.090,N,11558.429,E,1,12,1.0,0.0,M,0.0,M,,*6D
$GPGSA,A,3,01,02,03,04,05,06,07,08,09,10,11,12,1.0,1.0,1.0*30
$GPRMC,185056.211,A,3131.090,N,11558.429,E,33882.7,261.6,180619,000.0,W*78
$GPGGA,185057.211,3129.496,N,11547.557,E,1,12,1.0,0.0,M,0.0,M,,*61
$GPGSA,A,3,01,02,03,04,05,06,07,08,09,10,11,12,1.0,1.0,1.0*30
$GPRMC,185057.211,A,3129.496,N,11547.557,E,33892.0,261.6,180619,000.0,W*72
$GPGGA,185058.211,3127.902,N,11536.685,E,1,12,1.0,0.0,M,0.0,M,,*6A
$GPGSA,A,3,01,02,03,04,05,06,07,08,09,10,11,12,1.0,1.0,1.0*30
$GPRMC,185058.211,A,3127.902,N,11536.685,E,33901.4,261.6,180619,000.0,W*76
$GPGGA,185059.211,3126.309,N,11525.812,E,1,12,1.0,0.0,M,0.0,M,,*69
$GPGSA,A,3,01,02,03,04,05,06,07,08,09,10,11,12,1.0,1.0,1.0*30
$GPRMC,185059.211,A,3126.309,N,11525.812,E,33910.7,261.6,180619,000.0,W*76
$GPGGA,185100.211,3124.715,N,11514.940,E,1,12,1.0,0.0,M,0.0,M,,*6B
$GPGSA,A,3,01,02,03,04,05,06,07,08,09,10,11,12,1.0,1.0,1.0*30
$GPRMC,185100.211,A,3124.715,N,11514.940,E,33920.0,261.6,180619,000.0,W*70
$GPGGA,185101.211,3123.121,N,11504.068,E,1,12,1.0,0.0,M,0.0,M,,*6E
$GPGSA,A,3,01,02,03,04,05,06,07,08,09,10,11,12,1.0,1.0,1.0*30
$GPRMC,185101.211,A,3123.121,N,11504.068,E,33929.3,261.6,180619,000.0,W*7F
$GPGGA,185102.211,3121.528,N,11453.196,E,1,12,1.0,0.0,M,0.0,M,,*61
$GPGSA,A,3,01,02,03,04,05,06,07,08,09,10,11,12,1.0,1.0,1.0*30
$GPRMC,185102.211,A,3121.528,N,11453.196,E,33938.7,261.6,180619,000.0,W*74
$GPGGA,185103.211,3119.934,N,11442.324,E,1,12,1.0,0.0,M,0.0,M,,*61
$GPGSA,A,3,01,02,03,04,05,06,07,08,09,10,11,12,1.0,1.0,1.0*30
$GPRMC,185103.211,A,3119.934,N,11442.324,E,33948.0,261.6,180619,000.0,W*74
$GPGGA,185104.211,3118.340,N,11431.452,E,1,12,1.0,0.0,M,0.0,M,,*6C
$GPGSA,A,3,01,02,03,04,05,06,07,08,09,10,11,12,1.0,1.0,1.0*30
$GPRMC,185104.211,A,3118.340,N,11431.452,E,33957.3,261.6,180619,000.0,W*74
$GPGGA,185105.211,3116.746,N,11420.580,E,1,12,1.0,0.0,M,0.0,M,,*6F
$GPGSA,A,3,01,02,03,04,05,06,07,08,09,10,11,12,1.0,1.0,1.0*30
$GPRMC,185105.211,A,3116.746,N,11420.580,E,33966.6,261.6,180619,000.0,W*70
$GPGGA,185106.211,3115.153,N,11409.708,E,1,12,1.0,0.0,M,0.0,M,,*64
$GPGSA,A,3,01,02,03,04,05,06,07,08,09,10,11,12,1.0,1.0,1.0*30
$GPRMC,185106.211,A,3115.153,N,11409.708,E,33975.8,261.6,180619,000.0,W*77
$GPGGA,185107.211,3113.559,N,11358.836,E,1,12,1.0,0.0,M,0.0,M,,*6C
$GPGSA,A,3,01,02,03,04,05,06,07,08,09,10,11,12,1.0,1.0,1.0*30
$GPRMC,185107.211,A,3113.559,N,11358.836,E,33985.1,261.6,180619,000.0,W*79
$GPGGA,185108.211,3111.965,N,11347.963,E,1,12,1.0,0.0,M,0.0,M,,*6D
$GPGSA,A,3,01,02,03,04,05,06,07,08,09,10,11,12,1.0,1.0,1.0*30
$GPRMC,185108.211,A,3111.965,N,11347.963,E,33994.4,261.6,180619,000.0,W*7D
$GPGGA,185109.211,3110.372,N,11337.091,E,1,12,1.0,0.0,M,0.0,M,,*62
$GPGSA,A,3,01,02,03,04,05,06,07,08,09,10,11,12,1.0,1.0,1.0*30
$GPRMC,185109.211,A,3110.372,N,11337.091,E,34003.6,261.6,180619,000.0,W*70
$GPGGA,185110.211,3108.778,N,11326.219,E,1,12,1.0,0.0,M,0.0,M,,*6F
$GPGSA,A,3,01,02,03,04,05,06,07,08,09,10,11,12,1.0,1.0,1.0*30
$GPRMC,185110.211,A,3108.778,N,11326.219,E,34012.9,261.6,180619,000.0,W*72
$GPGGA,185111.211,3107.184,N,11315.347,E,1,12,1.0,0.0,M,0.0,M,,*6E
$GPGSA,A,3,01,02,03,04,05,06,07,08,09,10,11,12,1.0,1.0,1.0*30
$GPRMC,185111.211,A,3107.184,N,11315.347,E,34022.2,261.6,180619,000.0,W*7B
$GPGGA,185112.211,3105.591,N,11304.475,E,1,12,1.0,0.0,M,0.0,M,,*69
$GPGSA,A,3,01,02,03,04,05,06,07,08,09,10,11,12,1.0,1.0,1.0*30
$GPRMC,185112.211,A,3105.591,N,11304.475,E,34031.4,261.6,180619,000.0,W*78
$GPGGA,185113.211,3103.997,N,11253.603,E,1,12,1.0,0.0,M,0.0,M,,*64
$GPGSA,A,3,01,02,03,04,05,06,07,08,09,10,11,12,1.0,1.0,1.0*30
$GPRMC,185113.211,A,3103.997,N,11253.603,E,34040.6,261.6,180619,000.0,W*71
$GPGGA,185114.211,3102.403,N,11242.731,E,1,12,1.0,0.0,M,0.0,M,,*62
$GPGSA,A,3,01,02,03,04,05,06,07,08,09,10,11,12,1.0,1.0,1.0*30
$GPRMC,185114.211,A,3102.403,N,11242.731,E,34049.9,261.6,180619,000.0,W*71
$GPGGA,185115.211,3100.809,N,11231.859,E,1,12,1.0,0.0,M,0.0,M,,*62
$GPGSA,A,3,01,02,03,04,05,06,07,08,09,10,11,12,1.0,1.0,1.0*30
$GPRMC,185115.211,A,3100.809,N,11231.859,E,34059.1,261.6,180619,000.0,W*78
$GPGGA,185116.211,3059.216,N,11220.987,E,1,12,1.0,0.0,M,0.0,M,,*6A
$GPGSA,A,3,01,02,03,04,05,06,07,08,09,10,11,12,1.0,1.0,1.0*30
$GPRMC,185116.211,A,3059.216,N,11220.987,E,34068.3,261.6,180619,000.0,W*70
$GPGGA,185117.211,3057.622,N,11210.115,E,1,12,1.0,0.0,M,0.0,M,,*66
$GPGSA,A,3,01,02,03,04,05,06,07,08,09,10,11,12,1.0,1.0,1.0*30
$GPRMC,185117.211,A,3057.622,N,11210.115,E,34077.5,261.6,180619,000.0,W*74
$GPGGA,185118.211,3056.028,N,11159.242,E,1,12,1.0,0.0,M,0.0,M,,*6B
$GPGSA,A,3,01,02,03,04,05,06,07,08,09,10,11,12,1.0,1.0,1.0*30
$GPRMC,185118.211,A,3056.028,N,11159.242,E,34086.7,261.6,180619,000.0,W*75
$GPGGA,185119.211,3054.435,N,11148.370,E,1,12,1.0,0.0,M,0.0,M,,*60
$GPGSA,A,3,01,02,03,04,05,06,07,08,09,10,11,12,1.0,1.0,1.0*30
$GPRMC,185119.211,A,3054.435,N,11148.370,E,34095.9,261.6,180619,000.0,W*72
$GPGGA,185120.211,3052.841,N,11137.498,E,1,12,1.0,0.0,M,0.0,M,,*6A
$GPGSA,A,3,01,02,03,04,05,06,07,08,09,10,11,12,1.0,1.0,1.0*30
$GPRMC,185120.211,A,3052.841,N,11137.498,E,34105.1,261.6,180619,000.0,W*78
$GPGGA,185121.211,3051.247,N,11126.626,E,1,12,1.0,0.0,M,0.0,M,,*63
$GPGSA,A,3,01,02,03,04,05,06,07,08,09,10,11,12,1.0,1.0,1.0*30
$GPRMC,185121.211,A,3051.247,N,11126.626,E,34114.3,261.6,180619,000.0,W*73
$GPGGA,185122.211,3049.653,N,11115.754,E,1,12,1.0,0.0,M,0.0,M,,*6C
$GPGSA,A,3,01,02,03,04,05,06,07,08,09,10,11,12,1.0,1.0,1.0*30
$GPRMC,185122.211,A,3049.653,N,11115.754,E,34123.4,261.6,180619,000.0,W*7F
$GPGGA,185123.211,3048.060,N,11104.882,E,1,12,1.0,0.0,M,0.0,M,,*6E
$GPGSA,A,3,01,02,03,04,05,06,07,08,09,10,11,12,1.0,1.0,1.0*30
$GPRMC,185123.211,A,3048.060,N,11104.882,E,34132.6,261.6,180619,000.0,W*7F
$GPGGA,185124.211,3046.466,N,11054.010,E,1,12,1.0,0.0,M,0.0,M,,*62
$GPGSA,A,3,01,02,03,04,05,06,07,08,09,10,11,12,1.0,1.0,1.0*30
$GPRMC,185124.211,A,3046.466,N,11054.010,E,34132.6,261.6,180619,000.0,W*73