$GPGGA,184911.211,4523.444,N,06055.151,W,1,12,1.0,0.0,M,0.0,M,,*7D
$GPGSA,A,3,01,02,03,04,05,06,07,08,09,10,11,12,1.0,1.0,1.0*30
$GPRMC,184911.211,A,4523.444,N,06055.151,W,16455.5,258.0,180619,000.0,W*67
$GPGGA,184912.211,4522.130,N,06101.380,W,1,12,1.0,0.0,M,0.0,M,,*77
$GPGSA,A,3,01,02,03,04,05,06,07,08,09,10,11,12,1.0,1.0,1.0*30
$GPRMC,184912.211,A,4522.130,N,06101.380,W,16461.4,258.0,180619,000.0,W*6B
$GPGGA,184913.211,4520.815,N,06107.608,W,1,12,1.0,0.0,M,0.0,M,,*79
$GPGSA,A,3,01,02,03,04,05,06,07,08,09,10,11,12,1.0,1.0,1.0*30
$GPRMC,184913.211,A,4520.815,N,06107.608,W,16467.2,258.0,180619,000.0,W*65
$GPGGA,184914.211,4519.501,N,06113.836,W,1,12,1.0,0.0,M,0.0,M,,*7A
$GPGSA,A,3,01,02,03,04,05,06,07,08,09,10,11,12,1.0,1.0,1.0*30
$GPRMC,184914.211,A,4519.501,N,06113.836,W,16473.1,258.0,180619,000.0,W*60
$GPGGA,184915.211,4518.187,N,06120.064,W,1,12,1.0,0.0,M,0.0,M,,*7F
$GPGSA,A,3,01,02,03,04,05,06,07,08,09,10,11,12,1.0,1.0,1.0*30
$GPRMC,184915.211,A,4518.187,N,06120.064,W,16478.9,258.0,180619,000.0,W*66
$GPGGA,184916.211,4516.872,N,06126.293,W,1,12,1.0,0.0,M,0.0,M,,*7D
$GPGSA,A,3,01,02,03,04,05,06,07,08,09,10,11,12,1.0,1.0,1.0*30
$GPRMC,184916.211,A,4516.872,N,06126.293,W,16484.8,258.0,180619,000.0,W*66
$GPGGA,184917.211,4515.558,N,06132.521,W,1,12,1.0,0.0,M,0.0,M,,*71
$GPGSA,A,3,01,02,03,04,05,06,07,08,09,10,11,12,1.0,1.0,1.0*30
$GPRMC,184917.211,A,4515.558,N,06132.521,W,16490.6,258.0,180619,000.0,W*61
$GPGGA,184918.211,4514.244,N,06138.749,W,1,12,1.0,0.0,M,0.0,M,,*73
$GPGSA,A,3,01,02,03,04,05,06,07,08,09,10,11,12,1.0,1.0,1.0*30
$GPRMC,184918.211,A,4514.244,N,06138.749,W,16496.4,258.0,180619,000.0,W*67
$GPGGA,184919.211,4512.929,N,06144.977,W,1,12,1.0,0.0,M,0.0,M,,*7C
$GPGSA,A,3,01,02,03,04,05,06,07,08,09,10,11,12,1.0,1.0,1.0*30
$GPRMC,184919.211,A,4512.929,N,06144.977,W,16502.3,258.0,180619,000.0,W*63
$GPGGA,184920.211,4511.615,N,06151.205,W,1,12,1.0,0.0,M,0.0,M,,*7F
$GPGSA,A,3,01,02,03,04,05,06,07,08,09,10,11,12,1.0,1.0,1.0*30
$GPRMC,184920.211,A,4511.615,N,06151.205,W,16508.1,258.0,180619,000.0,W*68
$GPGGA,184921.211,4510.301,N,06157.434,W,1,12,1.0,0.0,M,0.0,M,,*7D
$GPGSA,A,3,01,02,03,04,05,06,07,08,09,10,11,12,1.0,1.0,1.0*30
$GPRMC,184921.211,A,4510.301,N,06157.434,W,16513.9,258.0,180619,000.0,W*68
$GPGGA,184922.211,4508.986,N,06203.662,W,1,12,1.0,0.0,M,0.0,M,,*71
$GPGSA,A,3,01,02,03,04,05,06,07,08,09,10,11,12,1.0,1.0,1.0*30
$GPRMC,184922.211,A,4508.986,N,06203.662,W,16519.7,258.0,180619,000.0,W*60
$GPGGA,184923.211,4507.672,N,06209.890,W,1,12,1.0,0.0,M,0.0,M,,*72
$GPGSA,A,3,01,02,03,04,05,06,07,08,09,10,11,12,1.0,1.0,1.0*30
$GPRMC,184923.211,A,4507.672,N,06209.890,W,16525.6,258.0,180619,000.0,W*6D
$GPGGA,184924.211,4506.358,N,06216.118,W,1,12,1.0,0.0,M,0.0,M,,*7E
$GPGSA,A,3,01,02,03,04,05,06,07,08,09,10,11,12,1.0,1.0,1.0*30
$GPRMC,184924.211,A,4506.358,N,06216.118,W,16531.4,258.0,180619,000.0,W*66
$GPGGA,184925.211,4505.043,N,06222.347,W,1,12,1.0,0.0,M,0.0,M,,*7A
$GPGSA,A,3,01,02,03,04,05,06,07,08,09,10,11,12,1.0,1.0,1.0*30
$GPRMC,184925.211,A,4505.043,N,06222.347,W,16537.2,258.0,180619,000.0,W*62
$GPGGA,184926.211,4503.729,N,06228.575,W,1,12,1.0,0.0,M,0.0,M,,*79
$GPGSA,A,3,01,02,03,04,05,06,07,08,09,10,11,12,1.0,1.0,1.0*30
$GPRMC,184926.211,A,4503.729,N,06228.575,W,16543.0,258.0,180619,000.0,W*60
$GPGGA,184927.211,4502.415,N,06234.803,W,1,12,1.0,0.0,M,0.0,M,,*74
$GPGSA,A,3,01,02,03,04,05,06,07,08,09,10,11,12,1.0,1.0,1.0*30
$GPRMC,184927.211,A,4502.415,N,06234.803,W,16548.9,258.0,180619,000.0,W*6F
$GPGGA,184928.211,4501.100,N,06241.031,W,1,12,1.0,0.0,M,0.0,M,,*72
$GPGSA,A,3,01,02,03,04,05,06,07,08,09,10,11,12,1.0,1.0,1.0*30
$GPRMC,184928.211,A,4501.100,N,06241.031,W,16554.7,258.0,180619,000.0,W*6A
$GPGGA,184929.211,4459.786,N,06247.260,W,1,12,1.0,0.0,M,0.0,M,,*77
$GPGSA,A,3,01,02,03,04,05,06,07,08,09,10,11,12,1.0,1.0,1.0*30
$GPRMC,184929.211,A,4459.786,N,06247.260,W,16560.5,258.0,180619,000.0,W*6A
$GPGGA,184930.211,4458.472,N,06253.488,W,1,12,1.0,0.0,M,0.0,M,,*73
$GPGSA,A,3,01,02,03,04,05,06,07,08,09,10,11,12,1.0,1.0,1.0*30
$GPRMC,184930.211,A,4458.472,N,06253.488,W,16566.3,258.0,180619,000.0,W*6E
$GPGGA,184931.211,4457.157,N,06259.716,W,1,12,1.0,0.0,M,0.0,M,,*71
$GPGSA,A,3,01,02,03,04,05,06,07,08,09,10,11,12,1.0,1.0,1.0*30
$GPRMC,184931.211,A,4457.157,N,06259.716,W,16572.1,258.0,180619,000.0,W*6B
$GPGGA,184932.211,4455.843,N,06305.944,W,1,12,1.0,0.0,M,0.0,M,,*7D
$GPGSA,A,3,01,02,03,04,05,06,07,08,09,10,11,12,1.0,1.0,1.0*30
$GPRMC,184932.211,A,4455.843,N,06305.944,W,16577.9,258.0,180619,000.0,W*6A
$GPGGA,184933.211,4454.529,N,06312.172,W,1,12,1.0,0.0,M,0.0,M,,*77
$GPGSA,A,3,01,02,03,04,05,06,07,08,09,10,11,12,1.0,1.0,1.0*30
$GPRMC,184933.211,A,4454.529,N,06312.172,W,16583.7,258.0,180619,000.0,W*65
$GPGGA,184934.211,4453.214,N,06318.401,W,1,12,1.0,0.0,M,0.0,M,,*75
$GPGSA,A,3,01,02,03,04,05,06,07,08,09,10,11,12,1.0,1.0,1.0*30
$GPRMC,184934.211,A,4453.214,N,06318.401,W,16589.5,258.0,180619,000.0,W*6F
$GPGGA,184935.211,4451.900,N,06324.629,W,1,12,1.0,0.0,M,0.0,M,,*7F
$GPGSA,A,3,01,02,03,04,05,06,07,08,09,10,11,12,1.0,1.0,1.0*30
$GPRMC,184935.211,A,4451.900,N,06324.629,W,16595.3,258.0,180619,000.0,W*6E
$GPGGA,184936.211,4450.586,N,06330.857,W,1,12,1.0,0.0,M,0.0,M,,*7D
$GPGSA,A,3,01,02,03,04,05,06,07,08,09,10,11,12,1.0,1.0,1.0*30
$GPRMC,184936.211,A,4450.586,N,06330.857,W,16601.1,258.0,180619,000.0,W*60
$GPGGA,184937.211,4449.271,N,06337.085,W,1,12,1.0,0.0,M,0.0,M,,*7B
$GPGSA,A,3,01,02,03,04,05,06,07,08,09,10,11,12,1.0,1.0,1.0*30
$GPRMC,184937.211,A,4449.271,N,06337.085,W,16606.9,258.0,180619,000.0,W*69
$GPGGA,184938.211,4447.957,N,06343.314,W,1,12,1.0,0.0,M,0.0,M,,*7D
$GPGSA,A,3,01,02,03,04,05,06,07,08,09,10,11,12,1.0,1.0,1.0*30
$GPRMC,184938.211,A,4447.957,N,06343.314,W,16612.7,258.0,180619,000.0,W*64
$GPGGA,184939.211,4446.643,N,06349.542,W,1,12,1.0,0.0,M,0.0,M,,*78
$GPGSA,A,3,01,02,03,04,05,06,07,08,09,10,11,12,1.0,1.0,1.0*30
$GPRMC,184939.211,A,4446.643,N,06349.542,W,16618.5,258.0,180619,000.0,W*69
$GPGGA,184940.211,4445.328,N,06355.770,W,1,12,1.0,0.0,M,0.0,M,,*73
$GPGSA,A,3,01,02,03,04,05,06,07,08,09,10,11,12,1.0,1.0,1.0*30
$GPRMC,184940.211,A,4445.328,N,06355.770,W,16624.3,258.0,180619,000.0,W*6B
$GPGGA,184941.211,4444.014,N,06401.998,W,1,12,1.0,0.0,M,0.0,M,,*71
$GPGSA,A,3,01,02,03,04,05,06,07,08,09,10,11,12,1.0,1.0,1.0*30
$GPRMC,184941.211,A,4444.014,N,06401.998,W,16630.1,258.0,180619,000.0,W*6E
$GPGGA,184942.211,4442.700,N,06408.227,W,1,12,1.0,0.0,M,0.0,M,,*70
$GPGSA,A,3,01,02,03,04,05,06,07,08,09,10,11,12,1.0,1.0,1.0*30
$GPRMC,184942.211,A,4442.700,N,06408.227,W,16635.8,258.0,180619,000.0,W*63
$GPGGA,184943.211,4441.385,N,06414.455,W,1,12,1.0,0.0,M,0.0,M,,*75
$GPGSA,A,3,01,02,03,04,05,06,07,08,09,10,11,12,1.0,1.0,1.0*30
$GPRMC,184943.211,A,4441.385,N,06414.455,W,16641.6,258.0,180619,000.0,W*6B
$GPGGA,184944.211,4440.071,N,06420.683,W,1,12,1.0,0.0,M,0.0,M,,*75
$GPGSA,A,3,01,02,03,04,05,06,07,08,09,10,11,12,1.0,1.0,1.0*30
$GPRMC,184944.211,A,4440.071,N,06420.683,W,16647.4,258.0,180619,000.0,W*6F
$GPGGA,184945.211,4438.757,N,06426.911,W,1,12,1.0,0.0,M,0.0,M,,*7A
$GPGSA,A,3,01,02,03,04,05,06,07,08,09,10,11,12,1.0,1.0,1.0*30
$GPRMC,184945.211,A,4438.757,N,06426.911,W,16653.2,258.0,180619,000.0,W*63
$GPGGA,184946.211,4437.443,N,06433.139,W,1,12,1.0,0.0,M,0.0,M,,*76
$GPGSA,A,3,01,02,03,04,05,06,07,08,09,10,11,12,1.0,1.0,1.0*30
$GPRMC,184946.211,A,4437.443,N,06433.139,W,16659.0,258.0,180619,000.0,W*67
$GPGGA,184947.211,4436.128,N,06439.368,W,1,12,1.0,0.0,M,0.0,M,,*72
$GPGSA,A,3,01,02,03,04,05,06,07,08,09,10,11,12,1.0,1.0,1.0*30
$GPRMC,184947.211,A,4436.128,N,06439.368,W,16664.7,258.0,180619,000.0,W*6A
$GPGGA,184948.211,4434.814,N,06445.596,W,1,12,1.0,0.0,M,0.0,M,,*75
$GPGSA,A,3,01,02,03,04,05,06,07,08,09,10,11,12,1.0,1.0,1.0*30
$GPRMC,184948.211,A,4434.814,N,06445.596,W,16670.5,258.0,180619,000.0,W*6A
$GPGGA,184949.211,4433.500,N,06451.824,W,1,12,1.0,0.0,M,0.0,M,,*7A
$GPGSA,A,3,01,02,03,04,05,06,07,08,09,10,11,12,1.0,1.0,1.0*30
$GPRMC,184949.211,A,4433.500,N,06451.824,W,16676.3,258.0,180619,000.0,W*65
$GPGGA,184950.211,4432.185,N,06458.052,W,1,12,1.0,0.0,M,0.0,M,,*7A
$GPGSA,A,3,01,02,03,04,05,06,07,08,09,10,11,12,1.0,1.0,1.0*30
$GPRMC,184950.211,A,4432.185,N,06458.052,W,16682.1,258.0,180619,000.0,W*6C
$GPGGA,184951.211,4430.871,N,06504.281,W,1,12,1.0,0.0,M,0.0,M,,*7F
$GPGSA,A,3,01,02,03,04,05,06,07,08,09,10,11,12,1.0,1.0,1.0*30
$GPRMC,184951.211,A,4430.871,N,06504.281,W,16687.8,258.0,180619,000.0,W*65
$GPGGA,184952.211,4429.557,N,06510.509,W,1,12,1.0,0.0,M,0.0,M,,*7F
$GPGSA,A,3,01,02,03,04,05,06,07,08,09,10,11,12,1.0,1.0,1.0*30
$GPRMC,184952.211,A,4429.557,N,06510.509,W,16693.6,258.0,180619,000.0,W*6E
$GPGGA,184953.211,4428.242,N,06516.737,W,1,12,1.0,0.0,M,0.0,M,,*75
$GPGSA,A,3,01,02,03,04,05,06,07,08,09,10,11,12,1.0,1.0,1.0*30
$GPRMC,184953.211,A,4428.242,N,06516.737,W,16699.3,258.0,180619,000.0,W*6B
$GPGGA,184954.211,4426.928,N,06522.965,W,1,12,1.0,0.0,M,0.0,M,,*75
$GPGSA,A,3,01,02,03,04,05,06,07,08,09,10,11,12,1.0,1.0,1.0*30
$GPRMC,184954.211,A,4426.928,N,06522.965,W,16705.1,258.0,180619,000.0,W*6D
$GPGGA,184955.211,4425.614,N,06529.194,W,1,12,1.0,0.0,M,0.0,M,,*7A
$GPGSA,A,3,01,02,03,04,05,06,07,08,09,10,11,12,1.0,1.0,1.0*30
$GPRMC,184955.211,A,4425.614,N,06529.194,W,16710.9,258.0,180619,000.0,W*6E
$GPGGA,184956.211,4424.299,N,06535.422,W,1,12,1.0,0.0,M,0.0,M,,*7C
$GPGSA,A,3,01,02,03,04,05,06,07,08,09,10,11,12,1.0,1.0,1.0*30
$GPRMC,184956.211,A,4424.299,N,06535.422,W,16716.6,258.0,180619,000.0,W*61
$GPGGA,184957.211,4422.985,N,06541.650,W,1,12,1.0,0.0,M,0.0,M,,*79
$GPGSA,A,3,01,02,03,04,05,06,07,08,09,10,11,12,1.0,1.0,1.0*30
$GPRMC,184957.211,A,4422.985,N,06541.650,W,16722.4,258.0,180619,000.0,W*61
$GPGGA,184958.211,4421.671,N,06547.878,W,1,12,1.0,0.0,M,0.0,M,,*73
$GPGSA,A,3,01,02,03,04,05,06,07,08,09,10,11,12,1.0,1.0,1.0*30
$GPRMC,184958.211,A,4421.671,N,06547.878,W,16728.1,258.0,180619,000.0,W*64
$GPGGA,184959.211,4420.356,N,06554.106,W,1,12,1.0,0.0,M,0.0,M,,*71
$GPGSA,A,3,01,02,03,04,05,06,07,08,09,10,11,12,1.0,1.0,1.0*30
$GPRMC,184959.211,A,4420.356,N,06554.106,W,16733.9,258.0,180619,000.0,W*64
$GPGGA,185000.211,4419.042,N,06600.335,W,1,12,1.0,0.0,M,0.0,M,,*79
$GPGSA,A,3,01,02,03,04,05,06,07,08,09,10,11,12,1.0,1.0,1.0*30
$GPRMC,185000.211,A,4419.042,N,06600.335,W,16739.6,258.0,180619,000.0,W*69
$GPGGA,185001.211,4417.728,N,06606.563,W,1,12,1.0,0.0,M,0.0,M,,*7E
$GPGSA,A,3,01,02,03,04,05,06,07,08,09,10,11,12,1.0,1.0,1.0*30
$GPRMC,185001.211,A,4417.728,N,06606.563,W,16745.4,258.0,180619,000.0,W*67
$GPGGA,185002.211,4416.413,N,06612.791,W,1,12,1.0,0.0,M,0.0,M,,*7D
$GPGSA,A,3,01,02,03,04,05,06,07,08,09,10,11,12,1.0,1.0,1.0*30
$GPRMC,185002.211,A,4416.413,N,06612.791,W,16751.1,258.0,180619,000.0,W*64
$GPGGA,185003.211,4415.099,N,06619.019,W,1,12,1.0,0.0,M,0.0,M,,*75
$GPGSA,A,3,01,02,03,04,05,06,07,08,09,10,11,12,1.0,1.0,1.0*30
$GPRMC,185003.211,A,4415.099,N,06619.019,W,16756.9,258.0,180619,000.0,W*63
$GPGGA,185004.211,4413.785,N,06625.248,W,1,12,1.0,0.0,M,0.0,M,,*77
$GPGSA,A,3,01,02,03,04,05,06,07,08,09,10,11,12,1.0,1.0,1.0*30
$GPRMC,185004.211,A,4413.785,N,06625.248,W,16762.6,258.0,180619,000.0,W*69
$GPGGA,185005.211,4412.470,N,06631.476,W,1,12,1.0,0.0,M,0.0,M,,*70
$GPGSA,A,3,01,02,03,04,05,06,07,08,09,10,11,12,1.0,1.0,1.0*30
$GPRMC,185005.211,A,4412.470,N,06631.476,W,16768.3,258.0,180619,000.0,W*61
$GPGGA,185006.211,4411.156,N,06637.704,W,1,12,1.0,0.0,M,0.0,M,,*71
$GPGSA,A,3,01,02,03,04,05,06,07,08,09,10,11,12,1.0,1.0,1.0*30
$GPRMC,185006.211,A,4411.156,N,06637.704,W,16774.1,258.0,180619,000.0,W*6F
$GPGGA,185007.211,4409.842,N,06643.932,W,1,12,1.0,0.0,M,0.0,M,,*7D
$GPGSA,A,3,01,02,03,04,05,06,07,08,09,10,11,12,1.0,1.0,1.0*30
$GPRMC,185007.211,A,4409.842,N,06643.932,W,16779.8,258.0,180619,000.0,W*67
$GPGGA,185008.211,4408.527,N,06650.160,W,1,12,1.0,0.0,M,0.0,M,,*70
$GPGSA,A,3,01,02,03,04,05,06,07,08,09,10,11,12,1.0,1.0,1.0*30
$GPRMC,185008.211,A,4408.527,N,06650.160,W,16785.5,258.0,180619,000.0,W*64
$GPGGA,185009.211,4407.213,N,06656.389,W,1,12,1.0,0.0,M,0.0,M,,*7D
$GPGSA,A,3,01,02,03,04,05,06,07,08,09,10,11,12,1.0,1.0,1.0*30
$GPRMC,185009.211,A,4407.213,N,06656.389,W,16791.3,258.0,180619,000.0,W*6A
$GPGGA,185010.211,4405.899,N,06702.617,W,1,12,1.0,0.0,M,0.0,M,,*7D
$GPGSA,A,3,01,02,03,04,05,06,07,08,09,10,11,12,1.0,1.0,1.0*30
$GPRMC,185010.211,A,4405.899,N,06702.617,W,16797.0,258.0,180619,000.0,W*6F
$GPGGA,185011.211,4404.584,N,06708.845,W,1,12,1.0,0.0,M,0.0,M,,*7F
$GPGSA,A,3,01,02,03,04,05,06,07,08,09,10,11,12,1.0,1.0,1.0*30
$GPRMC,185011.211,A,4404.584,N,06708.845,W,16802.7,258.0,180619,000.0,W*69
$GPGGA,185012.211,4403.270,N,06715.073,W,1,12,1.0,0.0,M,0.0,M,,*76
$GPGSA,A,3,01,02,03,04,05,06,07,08,09,10,11,12,1.0,1.0,1.0*30
$GPRMC,185012.211,A,4403.270,N,06715.073,W,16808.4,258.0,180619,000.0,W*69
$GPGGA,185013.211,4401.956,N,06721.302,W,1,12,1.0,0.0,M,0.0,M,,*78
$GPGSA,A,3,01,02,03,04,05,06,07,08,09,10,11,12,1.0,1.0,1.0*30
$GPRMC,185013.211,A,4401.956,N,06721.302,W,16814.2,258.0,180619,000.0,W*6C
$GPGGA,185014.211,4400.641,N,06727.530,W,1,12,1.0,0.0,M,0.0,M,,*76
$GPGSA,A,3,01,02,03,04,05,06,07,08,09,10,11,12,1.0,1.0,1.0*30
$GPRMC,185014.211,A,4400.641,N,06727.530,W,16819.9,258.0,180619,000.0,W*64
$GPGGA,185015.211,4359.327,N,06733.758,W,1,12,1.0,0.0,M,0.0,M,,*70
$GPGSA,A,3,01,02,03,04,05,06,07,08,09,10,11,12,1.0,1.0,1.0*30
$GPRMC,185015.211,A,4359.327,N,06733.758,W,16825.6,258.0,180619,000.0,W*62
$GPGGA,185016.211,4358.013,N,06739.986,W,1,12,1.0,0.0,M,0.0,M,,*71
$GPGSA,A,3,01,02,03,04,05,06,07,08,09,10,11,12,1.0,1.0,1.0*30
$GPRMC,185016.211,A,4358.013,N,06739.986,W,16831.3,258.0,180619,000.0,W*63
$GPGGA,185017.211,4356.698,N,06746.215,W,1,12,1.0,0.0,M,0.0,M,,*72
$GPGSA,A,3,01,02,03,04,05,06,07,08,09,10,11,12,1.0,1.0,1.0*30
$GPRMC,185017.211,A,4356.698,N,06746.215,W,16837.0,258.0,180619,000.0,W*65
$GPGGA,185018.211,4355.384,N,06752.443,W,1,12,1.0,0.0,M,0.0,M,,*76
$GPGSA,A,3,01,02,03,04,05,06,07,08,09,10,11,12,1.0,1.0,1.0*30
$GPRMC,185018.211,A,4355.384,N,06752.443,W,16842.7,258.0,180619,000.0,W*64
$GPGGA,185019.211,4354.070,N,06758.671,W,1,12,1.0,0.0,M,0.0,M,,*77
$GPGSA,A,3,01,02,03,04,05,06,07,08,09,10,11,12,1.0,1.0,1.0*30
$GPRMC,185019.211,A,4354.070,N,06758.671,W,16848.4,258.0,180619,000.0,W*6C
$GPGGA,185020.211,4352.755,N,06804.899,W,1,12,1.0,0.0,M,0.0,M,,*75
$GPGSA,A,3,01,02,03,04,05,06,07,08,09,10,11,12,1.0,1.0,1.0*30
$GPRMC,185020.211,A,4352.755,N,06804.899,W,16854.2,258.0,180619,000.0,W*65
$GPGGA,185021.211,4351.441,N,06811.127,W,1,12,1.0,0.0,M,0.0,M,,*79
$GPGSA,A,3,01,02,03,04,05,06,07,08,09,10,11,12,1.0,1.0,1.0*30
$GPRMC,185021.211,A,4351.441,N,06811.127,W,16859.9,258.0,180619,000.0,W*6F
$GPGGA,185022.211,4350.127,N,06817.356,W,1,12,1.0,0.0,M,0.0,M,,*7C
$GPGSA,A,3,01,02,03,04,05,06,07,08,09,10,11,12,1.0,1.0,1.0*30
$GPRMC,185022.211,A,4350.127,N,06817.356,W,16865.6,258.0,180619,000.0,W*6A
$GPGGA,185023.211,4348.812,N,06823.584,W,1,12,1.0,0.0,M,0.0,M,,*75
$GPGSA,A,3,01,02,03,04,05,06,07,08,09,10,11,12,1.0,1.0,1.0*30
$GPRMC,185023.211,A,4348.812,N,06823.584,W,16871.3,258.0,180619,000.0,W*63
$GPGGA,185024.211,4347.498,N,06829.812,W,1,12,1.0,0.0,M,0.0,M,,*7B
$GPGSA,A,3,01,02,03,04,05,06,07,08,09,10,11,12,1.0,1.0,1.0*30
$GPRMC,185024.211,A,4347.498,N,06829.812,W,16877.0,258.0,180619,000.0,W*68
$GPGGA,185025.211,4346.184,N,06836.040,W,1,12,1.0,0.0,M,0.0,M,,*72
$GPGSA,A,3,01,02,03,04,05,06,07,08,09,10,11,12,1.0,1.0,1.0*30
$GPRMC,185025.211,A,4346.184,N,06836.040,W,16882.7,258.0,180619,000.0,W*6C
$GPGGA,185026.211,4344.869,N,06842.269,W,1,12,1.0,0.0,M,0.0,M,,*73
$GPGSA,A,3,01,02,03,04,05,06,07,08,09,10,11,12,1.0,1.0,1.0*30
$GPRMC,185026.211,A,4344.869,N,06842.269,W,16888.3,258.0,180619,000.0,W*63
$GPGGA,185027.211,4343.555,N,06848.497,W,1,12,1.0,0.0,M,0.0,M,,*7A
$GPGSA,A,3,01,02,03,04,05,06,07,08,09,10,11,12,1.0,1.0,1.0*30
$GPRMC,185027.211,A,4343.555,N,06848.497,W,16894.0,258.0,180619,000.0,W*64
$GPGGA,185028.211,4342.241,N,06854.725,W,1,12,1.0,0.0,M,0.0,M,,*71
$GPGSA,A,3,01,02,03,04,05,06,07,08,09,10,11,12,1.0,1.0,1.0*30
$GPRMC,185028.211,A,4342.241,N,06854.725,W,16899.7,258.0,180619,000.0,W*65
$GPGGA,185029.211,4340.926,N,06900.953,W,1,12,1.0,0.0,M,0.0,M,,*77
$GPGSA,A,3,01,02,03,04,05,06,07,08,09,10,11,12,1.0,1.0,1.0*30
$GPRMC,185029.211,A,4340.926,N,06900.953,W,16905.4,258.0,180619,000.0,W*64
$GPGGA,185030.211,4339.612,N,06907.182,W,1,12,1.0,0.0,M,0.0,M,,*7A
$GPGSA,A,3,01,02,03,04,05,06,07,08,09,10,11,12,1.0,1.0,1.0*30
$GPRMC,185030.211,A,4339.612,N,06907.182,W,16911.1,258.0,180619,000.0,W*69
$GPGGA,185031.211,4338.298,N,06913.410,W,1,12,1.0,0.0,M,0.0,M,,*77
$GPGSA,A,3,01,02,03,04,05,06,07,08,09,10,11,12,1.0,1.0,1.0*30
$GPRMC,185031.211,A,4338.298,N,06913.410,W,16916.8,258.0,180619,000.0,W*6A
$GPGGA,185032.211,4336.983,N,06919.638,W,1,12,1.0,0.0,M,0.0,M,,*79
$GPGSA,A,3,01,02,03,04,05,06,07,08,09,10,11,12,1.0,1.0,1.0*30
$GPRMC,185032.211,A,4336.983,N,06919.638,W,16922.5,258.0,180619,000.0,W*6E
$GPGGA,185033.211,4335.669,N,06925.866,W,1,12,1.0,0.0,M,0.0,M,,*7A
$GPGSA,A,3,01,02,03,04,05,06,07,08,09,10,11,12,1.0,1.0,1.0*30
$GPRMC,185033.211,A,4335.669,N,06925.866,W,16928.1,258.0,180619,000.0,W*63
$GPGGA,185034.211,4334.355,N,06932.094,W,1,12,1.0,0.0,M,0.0,M,,*75
$GPGSA,A,3,01,02,03,04,05,06,07,08,09,10,11,12,1.0,1.0,1.0*30
$GPRMC,185034.211,A,4334.355,N,06932.094,W,16933.8,258.0,180619,000.0,W*6F
$GPGGA,185035.211,4333.040,N,06938.323,W,1,12,1.0,0.0,M,0.0,M,,*71
$GPGSA,A,3,01,02,03,04,05,06,07,08,09,10,11,12,1.0,1.0,1.0*30
$GPRMC,185035.211,A,4333.040,N,06938.323,W,16939.5,258.0,180619,000.0,W*6C
$GPGGA,185036.211,4331.726,N,06944.551,W,1,12,1.0,0.0,M,0.0,M,,*7F
$GPGSA,A,3,01,02,03,04,05,06,07,08,09,10,11,12,1.0,1.0,1.0*30
$GPRMC,185036.211,A,4331.726,N,06944.551,W,16945.2,258.0,180619,000.0,W*6E
$GPGGA,185037.211,4330.412,N,06950.779,W,1,12,1.0,0.0,M,0.0,M,,*76
$GPGSA,A,3,01,02,03,04,05,06,07,08,09,10,11,12,1.0,1.0,1.0*30
$GPRMC,185037.211,A,4330.412,N,06950.779,W,16950.8,258.0,180619,000.0,W*69
$GPGGA,185038.211,4329.097,N,06957.007,W,1,12,1.0,0.0,M,0.0,M,,*71
$GPGSA,A,3,01,02,03,04,05,06,07,08,09,10,11,12,1.0,1.0,1.0*30
$GPRMC,185038.211,A,4329.097,N,06957.007,W,16956.5,258.0,180619,000.0,W*65
$GPGGA,185039.211,4327.783,N,07003.236,W,1,12,1.0,0.0,M,0.0,M,,*75
$GPGSA,A,3,01,02,03,04,05,06,07,08,09,10,11,12,1.0,1.0,1.0*30
$GPRMC,185039.211,A,4327.783,N,07003.236,W,16962.2,258.0,180619,000.0,W*61
$GPGGA,185040.211,4326.469,N,07009.464,W,1,12,1.0,0.0,M,0.0,M,,*76
$GPGSA,A,3,01,02,03,04,05,06,07,08,09,10,11,12,1.0,1.0,1.0*30
$GPRMC,185040.211,A,4326.469,N,07009.464,W,16967.8,258.1,180619,000.0,W*6C
$GPGGA,185041.211,4325.154,N,07015.692,W,1,12,1.0,0.0,M,0.0,M,,*79
$GPGSA,A,3,01,02,03,04,05,06,07,08,09,10,11,12,1.0,1.0,1.0*30
$GPRMC,185041.211,A,4325.154,N,07015.692,W,16973.5,258.1,180619,000.0,W*6B
$GPGGA,185042.211,4323.840,N,07021.920,W,1,12,1.0,0.0,M,0.0,M,,*71
$GPGSA,A,3,01,02,03,04,05,06,07,08,09,10,11,12,1.0,1.0,1.0*30
$GPRMC,185042.211,A,4323.840,N,07021.920,W,16979.2,258.1,180619,000.0,W*6E
$GPGGA,185043.211,4322.526,N,07028.149,W,1,12,1.0,0.0,M,0.0,M,,*72
$GPGSA,A,3,01,02,03,04,05,06,07,08,09,10,11,12,1.0,1.0,1.0*30
$GPRMC,185043.211,A,4322.526,N,07028.149,W,16984.8,258.1,180619,000.0,W*65
$GPGGA,185044.211,4321.211,N,07034.377,W,1,12,1.0,0.0,M,0.0,M,,*77
$GPGSA,A,3,01,02,03,04,05,06,07,08,09,10,11,12,1.0,1.0,1.0*30
$GPRMC,185044.211,A,4321.211,N,07034.377,W,16990.5,258.1,180619,000.0,W*68
$GPGGA,185045.211,4319.897,N,07040.605,W,1,12,1.0,0.0,M,0.0,M,,*7A
$GPGSA,A,3,01,02,03,04,05,06,07,08,09,10,11,12,1.0,1.0,1.0*30
$GPRMC,185045.211,A,4319.897,N,07040.605,W,16996.1,258.1,180619,000.0,W*67
$GPGGA,185046.211,4318.583,N,07046.833,W,1,12,1.0,0.0,M,0.0,M,,*7D
$GPGSA,A,3,01,02,03,04,05,06,07,08,09,10,11,12,1.0,1.0,1.0*30
$GPRMC,185046.211,A,4318.583,N,07046.833,W,16996.1,258.1,180619,000.0,W*60